ts_micro,gps_lat,gps_lon,imu_yaw,imu_pitch,imu_roll,tps,brake_press_front,brake_press_rear,susp_travel_f,susp_travel_r,tire_temp_surface,tire_temp_carcass,wheel_speed_f,wheel_speed_r,gps_speed,rpm,gear,tcs_level,engine_map
0,37.0,-2.999,1.5968246567166826,-0.7321010211525435,0.5859656793460922,89.89979946416219,2.8224001611973444,0.42336002417960167,43.97101063769256,52.18910080577956,85.0,83.5,180.75044840640453,184.0982281936104,180.48845901334352,15661.234054037024,4,3,Mapping 1
10000,37.000002000398744,-2.9990000020007996,0.006096153781411101,0.74589697438516,0.7468764225976853,89.93221045527389,2.5733217547775844,0.38599826321663766,43.14565556027732,52.71842555212926,85.31721383654285,83.72204968557999,183.04947805031443,185.49991793617437,181.85909877862628,15749.19282713898,4,3,Mapping 1
20000,37.00000400078949,-2.99900000800319,0.14490198982017555,-0.9880916942501906,1.3159173421741208,89.9583131644186,2.3238368284322832,0.34857552426484245,43.563672260378574,52.93613536601556,85.63437803522552,83.94406462465787,180.75382318543635,183.43822638937357,179.83434609365668,15446.529764207364,3,3,Mapping 1
30000,37.000006001164216,-2.9990000180071483,-0.7547918120400307,-0.8062997490052839,2.576505878366754,89.97810346802669,2.073984794486578,0.31109771917298673,41.181467419726246,52.9882853376182,85.95144296602939,84.16601007622057,179.27398116373195,183.2951551831342,179.69056249939632,15456.93644316,3,3,Mapping 1
40000,37.000008001514935,-2.999000032012633,2.0277495708338074,0.5680784097619629,1.634670567012923,89.99157823972939,1.8238051232593548,0.2735707684889032,41.071939378928306,54.15691665010492,86.26835901461763,84.38785131023234,178.68445696793265,181.6012700810085,178.02649800114548,15865.829173438018,3,3,Mapping 1
50000,37.00001000183364,-2.999000050019589,-1.5197616515288235,0.45273734855342324,4.0911425448059315,89.99873535085268,1.5733373368279,0.23600060052418498,41.426196097605185,54.23760785432792,86.58507659017306,84.60955361312114,182.86379853265933,188.16292141526512,184.4553685082493,15390.150639474901,4,3,Mapping 1
60000,37.00001200211231,-2.999000072027944,0.817944677301011,0.09203305032190001,4.763336393577451,89.99957367075355,1.3226210027844598,0.19839315041766897,42.75053188859775,53.02754888165827,86.90154613323222,84.83108229326255,184.15259029655869,186.7298938212198,183.04698841432364,15424.820152898506,4,3,Mapping 1
70000,37.00001400234296,-2.9990000980376097,0.2158800282271355,0.7827513265987255,4.852172994786436,89.9940930669986,1.0716957279855264,0.16075435919782896,43.007333839824035,51.97195966453922,87.21771812351454,85.05240268646018,183.19288315894232,187.6304855909035,183.9262116875169,15769.06114001347,4,3,Mapping 1
80000,37.000016002517576,-2.9990001280484826,-1.8889094620372924,1.069165834329781,6.1528896083759115,89.98229440538495,0.8206011522949596,0.12309017284424392,40.12609811553562,51.7733087455369,87.53354308774529,85.2734801614217,182.60389926835708,186.1262324637988,182.4480791873812,15753.28899457472,4,3,Mapping 1
90000,37.00001800262815,-2.999000162060442,0.4749407037860947,-0.8593342950220672,8.434832031346923,89.96417954980355,0.5693769423218896,0.08540654134828345,41.288238568501235,53.51236093099068,87.84897160747106,85.49428012522974,188.74172176525317,190.74116791024966,186.96815063052563,15436.168918540354,4,3,Mapping 1
100000,37.000020002666695,-2.999000200073352,1.1186763275605485,0.16151125190389554,12.16440414684373,89.93975136194462,0.31806278515440256,0.04770941777316038,38.910882093552644,52.09773501244518,88.16395432686674,85.71476802880672,187.61166859241322,190.67612278552534,186.9007280783428,15775.647911973247,4,3,Mapping 1
110000,37.000022002625194,-2.9990002420870607,-1.1070411988420084,0.9004565453780791,4.82327471088381,89.90901370084563,0.06669838208994538,0.010004757313491807,40.32717473641411,52.86605230394807,88.47844196053236,85.93490937237266,186.80769288588849,189.0151997544162,185.26905937387642,15473.316574342807,4,3,Mapping 1
120000,37.00002400249564,-2.9990002881013997,0.10764039540379325,0.5283515839062477,8.681026923741978,89.87197142228169,0.0,0.0,38.53043874201706,53.35227631873451,88.79238530127907,86.15466971089535,184.19901088812895,188.6408349950627,184.89848956624195,15426.652719475958,4,3,Mapping 1
130000,37.00002600227005,-2.999000338116185,0.8198376290697615,-0.26082054598550075,10.060570383676946,89.82863037799845,0.0,0.0,40.56155895804252,52.69791375645292,89.1057352279025,86.37401465953175,184.95364167300514,189.55756775079246,185.79339359652684,15599.360690046986,4,3,Mapping 1
140000,37.0000280019404,-2.9990003921312165,-0.41665852088288996,-1.2841576838652642,10.208023558405573,89.7789974147876,0.0,0.0,39.15116528274234,55.09626758407141,89.41844271294282,86.59290989905998,185.0850583298939,189.16507181700806,185.40505725585922,15583.90228912061,4,3,Mapping 1
150000,37.0000300014987,-2.999000450146278,-1.1231071820684315,-0.013266398326623909,11.476890848160389,89.72308037340537,0.0,0.0,39.97765941061968,53.215466156994644,89.73045883042968,86.81132118130078,187.6274921096514,191.3571246344401,187.5498624271686,15683.626318543127,4,3,Mapping 1
160000,37.00003200093695,-2.999000512161137,0.019961803840823553,-0.5943972763015604,7.832742786066666,89.66088808733377,0.0,0.0,38.66130833877868,53.727300869447554,90.04173476361146,87.02921433452802,188.95538629368164,190.5525554308831,186.75764018237723,15749.484529780008,4,3,Mapping 1
170000,37.00003400024714,-2.999000578175546,-0.5121226645258268,-1.2024309187825588,9.171818689449067,89.59243038138524,0.0,0.0,40.94606602888479,51.65028935648432,90.3522218126669,87.24655526886683,189.39811774992333,193.51058277375822,189.65303994135112,15812.33993836268,4,3,Mapping 1
180000,37.00003599942128,-2.9990006481892406,0.2690865168721278,1.3526149316266163,12.365700021717556,89.51771807015047,0.0,0.0,39.073773405574194,53.24755930734625,90.66187140239857,87.463309981679,188.48418542698425,192.08650155296465,188.25365709452024,15601.786754816314,4,3,Mapping 1
190000,37.00003799845136,-2.9990007222019406,-1.8796113601830113,-0.9820733444578602,12.863187414770378,89.43676295629001,0.0,0.0,41.758871711875614,54.81674076272824,90.97063508990652,87.67944456293456,189.92704885731314,192.60070653905726,188.75390201597173,15609.056677460247,4,3,Mapping 1
200000,37.00003999732939,-2.9990008002133495,0.30966960780018327,-0.7545736258080061,17.136777114377804,89.34957782866977,0.0,0.0,39.90731305255477,52.07787539607085,91.27846457224096,87.89492520056868,191.67511633249728,196.9617399301989,193.02404932398952,15628.867500042386,4,3,Mapping 1
210000,37.00004199604736,-2.9990008822231555,0.6217872905897268,-0.5893279947720571,13.410097008553054,89.2561764603407,0.0,0.0,40.26763243149005,53.274474114426766,91.58531169403297,88.10971818582308,188.53783381073015,192.84331824771505,188.98425966534862,15533.144305196809,4,3,Mapping 1
220000,37.000043994597284,-2.9990009682310306,-0.6580482392524137,-0.28253214180849423,14.86030966768039,89.15657360636294,0.0,0.0,38.9690051478076,51.6119795112042,91.89112845510178,88.32378991857125,185.8893060943534,191.62268635176838,187.78437375227193,15531.886677815797,4,3,Mapping 1
230000,37.00004599297115,-2.99900105823663,0.17051670879479922,-1.6009474278349776,18.19467644948452,89.05078500147496,0.0,0.0,39.497927545057436,52.68014761077325,92.19586701803769,88.53710691262638,191.5007275125444,196.066508258051,192.1354176136752,15501.453229434912,4,3,Mapping 1
240000,37.00004799116098,-2.999001152239594,-1.0912044257802802,-1.0583723393104516,13.721567579631316,88.93882735760783,0.0,0.0,41.792336737676315,51.44618312317056,92.49947971575907,88.74963580103135,187.46797187309528,191.57290468349441,187.72823052239573,15646.51254664099,4,3,Mapping 1
250000,37.00004998915877,-2.9990012502395467,-0.5858761074614309,-1.0075564319419297,18.586551843661205,88.82071836124516,0.0,0.0,40.78610683042986,51.317205772027464,92.80191905904259,88.96134334132981,194.55172234491593,196.84611023532503,192.89182776611958,15430.383084071993,4,3,Mapping 1
260000,37.00005198695652,-2.999001352236095,-0.24834685638074058,-0.2973531251912258,14.590171378699964,88.6964766706291,0.0,0.0,40.75655978697209,52.618592854876205,93.10313774402532,89.17219642081773,194.56997622985122,198.8010317912609,194.80366067422577,15604.957903434897,4,3,Mapping 1
270000,37.000053984546234,-2.999001458228832,-0.8436959572913052,1.2520974602639694,18.340321226618947,88.56612191281276,0.0,0.0,40.066290121161025,53.42405762265293,93.40308865967758,89.38216206177431,192.95720651663754,197.42914936416736,193.45557191699234,15622.218685969563,4,3,Mapping 1
280000,37.000055981919935,-2.9990015682173325,-0.6663624420449784,1.1999953180330818,19.356535328751463,88.42967468055971,0.0,0.0,40.42909389249609,53.836485284509514,93.70172489524523,89.59120742667166,191.70919850545124,197.7915800501938,193.80690998098478,15523.044861863462,4,3,Mapping 1
290000,37.00005797906961,-2.9990016822011567,0.005134441049109797,0.4556035111620276,17.42752829028575,88.2871565290908,0.0,0.0,39.642873598425794,51.49553938786039,93.99899974766045,89.79929982336232,189.98876030789185,194.07143213850998,190.1579808917576,15644.723943746343,4,3,Mapping 1
300000,37.00005997598728,-2.999001800179849,-1.3839366978630092,-0.14218035475062188,23.269157578372212,88.13858997267891,0.0,0.0,40.124767078293104,53.35291064399449,94.29486672891959,90.00640671024371,196.54260307023645,199.87266505661913,195.83839413738892,15392.318109034193,4,3,Mapping 1
310000,37.000061972664945,-2.999001922152936,0.43877896391281773,-0.7554713006538599,21.648859019782947,87.98399848109243,0.0,0.0,41.09355160035075,53.097641629618934,94.58927957342716,90.212495701399,196.50409926009578,200.0278768131365,195.9866324519767,15450.45265281947,4,3,Mapping 1
320000,37.000063969094626,-2.999002048119931,0.806105422344119,-1.1606060265783553,20.72293290682245,87.82340647588745,0.0,0.0,39.829847763040306,53.717298405511485,94.88219224530457,90.41753457171319,192.626269999058,197.30391122098155,193.3139120757383,15616.222691050038,4,3,Mapping 1
330000,37.00006596526833,-2.9990021780803295,0.8553344577434383,-0.5070129332755363,22.422779985695936,87.65683932654991,0.0,0.0,40.96600543262629,52.71799337810146,95.17355894566268,90.62149126196387,202.2853788230388,204.07651264333668,199.94563580755266,15525.963760056276,4,3,Mapping 1
340000,37.00006796117806,-2.9990023120336113,0.6187517723921815,1.0951605136549425,24.943996139499255,87.48432334648774,0.0,0.0,40.86626429575824,54.27363718628751,95.46333411983683,90.82433388388579,192.16700661068117,198.144712703553,194.13010219025847,15510.75705054763,4,3,Mapping 1
350000,37.000069956815835,-2.9990024499792405,0.893024928372206,1.7660306050659977,19.542367480799243,87.30588578887412,0.0,0.0,38.79966280112605,53.118684994294824,95.75147246458339,91.02603072520837,193.81657133427083,197.68486376695103,193.67577521989912,15706.264953672433,4,3,Mapping 1
360000,37.00007195217368,-2.9990025919166645,2.3353271504801905,-0.15911754070708456,25.83150581269583,87.12155484234205,0.0,0.0,39.50808299717123,51.367353008102306,96.03792893523645,91.22655025466551,194.6363843683507,197.88266952663287,193.865770756557,15267.98828530652,4,3,Mapping 1
370000,37.0000739472436,-2.9990027378453163,2.281150058660261,0.5357192504769416,24.445819234326642,86.9313596265314,0.0,0.0,39.5207550685548,52.29020764862528,96.32265875282381,91.42586112697667,197.25589133917006,202.0969207764496,197.9905958191602,15548.743932765306,4,3,Mapping 1
380000,37.00007594201761,-2.999002887764611,-1.5304381207697784,0.019487251044823673,26.18071002422876,86.73533018748861,0.0,0.0,41.179957528675246,52.84644421759148,96.60561741114088,91.62393218779862,198.5938681142363,203.19486433635421,199.06233035811962,15468.896469629368,4,3,Mapping 1
390000,37.00007793648773,-2.9990030416739497,0.3337798045010525,0.6499073755050846,26.599375868553956,86.5334974929202,0.0,0.0,39.43666502248641,51.391724748094504,96.88676068378159,91.82073247864712,199.05525233123547,203.86361279487267,199.71356491591985,15521.76230200357,4,3,Mapping 1
400000,37.000079930645974,-2.9990031995727158,1.6714667702561254,0.6156895462483019,22.487787841465728,86.32589342730074,0.0,0.0,41.25113267257345,53.027884923356744,97.16604463112498,92.01623124178748,198.15617376596254,202.72980964359905,198.59895145336898,15330.070092845877,4,3,Mapping 1
410000,37.00008192448438,-2.999003361460278,-0.32510663882759233,0.9841320943501879,28.717741662231283,86.11255078683581,0.0,0.0,40.430655669094975,53.016972937037906,97.44342560727658,92.2103979250936,198.52476941486069,202.21150915748285,198.0873309275708,15286.890741379517,4,3,Mapping 1
420000,37.00008391799495,-2.9990035273359874,-0.048431122972728356,1.394930715203088,28.236681128252187,85.89350327428104,0.0,0.0,39.500023457114864,51.63938420488354,97.7188602669634,92.40320218687438,203.25522864965,206.04032835167726,201.83410559115754,15511.282747531464,4,3,Mapping 1
430000,37.00008591116971,-2.9990036971991816,0.5003566184695227,0.24826684653942654,33.648728039330905,85.668785493618,0.0,0.0,38.45235035915329,51.73594380769479,97.99230557238134,92.59461390066694,200.33960723102615,202.93279656714304,198.78611814268658,15405.613515539535,4,3,Mapping 1
440000,37.000087904000694,-2.99900387104918,1.6500999351026668,-0.8754219537019781,31.127291159763992,85.43843294458753,0.0,0.0,40.90282692224511,50.91598163299575,98.2637187999941,92.78460315999587,199.41713584957802,202.73765120269937,198.59106966803088,15413.766723591329,4,3,Mapping 1
450000,37.00008989647992,-2.9990040488852867,1.584770073493294,-1.222278530958493,30.547865988307123,85.20248201708178,0.0,0.0,39.17786997883915,52.20262691990098,98.53305754728238,92.97314028309766,204.24295481610028,208.50812944992055,204.2395234106382,15478.001024154726,4,3,Mapping 1
460000,37.000091888599414,-2.9990042307067912,-0.5799267401055717,0.9819146258836222,30.81813060649185,84.96096998539545,0.0,0.0,40.06863191085067,53.38685664353232,98.80027973944249,93.16019581760975,202.4437469942128,206.445124018733,202.21479059939367,15511.450534430705,4,3,Mapping 1
470000,37.00009388035121,-2.999004416512965,2.1401161663502877,-0.9710947339781045,30.819068924942624,84.71393500233745,0.0,0.0,41.118147786649025,52.17679492035862,99.06534363603303,93.34574054522312,205.7426577527476,207.4769884384354,203.2215296084348,15291.549413782317,4,3,Mapping 1
480000,37.00009587172733,-2.999004606303065,-1.0284844987955006,-0.8722643801214073,31.98982451610156,84.46141609320367,0.0,0.0,40.34531993514468,53.23762529497312,99.32820783756887,93.52974548629821,203.87681879334932,208.2211307857786,203.9464139493992,15268.72613066146,4,3,Mapping 1
490000,37.00009786271981,-2.999004800076331,-0.36303184392177423,-0.5566832706800193,33.14398172127206,84.20345314961197,0.0,0.0,39.736229091892746,50.66633725904794,99.58883129206122,93.71218190444284,201.7423064247059,206.2005266354176,201.96333584929928,15261.138946626512,4,3,Mapping 1
500000,37.00009985332069,-2.999004997831989,-1.6226825662401194,-0.06848928889759191,29.06250918829011,83.94008692320041,0.0,0.0,39.908812866755675,53.23206012272555,99.84717330150276,93.89302131105194,202.43543652321296,206.7011969047198,202.4497521104014,15277.919913937416,4,3,Mapping 1
510000,37.000101843521996,-2.9990051995692464,-0.268087396498286,0.7958724671267554,30.233642273545055,83.67135901918934,0.0,0.0,40.58624534862273,50.77020168054426,100.10319352829701,94.07223546980791,205.6399058147467,209.51480797410628,205.2014730114065,15528.417969359718,4,3,Mapping 1
520000,37.00010383331576,-2.999005405287296,1.6731699748306175,-0.0434330448630458,34.62943561112351,83.39731188980899,0.0,0.0,40.26542432100883,50.316934078982726,100.3568520016305,94.24979640114135,203.02819671226877,207.36001251313547,203.08706075485338,15257.456844182674,4,3,Mapping 1
530000,37.000105822694024,-2.9990056149853155,0.88982452112507,0.5767721871943304,33.249219558272785,83.11798882759298,0.0,0.0,40.72908460712742,52.565089933886036,100.6081091237873,94.4256763866511,206.13703506028205,209.71614235350785,205.39061598094904,15233.44834764353,4,3,Mapping 1
540000,37.00010781164883,-2.999005828662465,-0.9106622418147227,0.18501333767719344,32.63355552965593,82.83343395853927,0.0,0.0,38.63717357780326,52.534793680025714,100.85692567640436,94.59984797348305,205.0664725837651,209.25294881485308,204.93296197639077,15235.422728774705,4,3,Mapping 1
550000,37.00010980017222,-2.9990060463178896,-0.13985288022363898,-0.6865440742964879,34.14556880397577,82.54369223513929,0.0,0.0,40.32437207181441,52.121466457931106,101.10326282666703,94.77228397866692,202.22538180459986,207.39835498604432,203.11267749098457,15305.29780239029,4,3,Mapping 1
560000,37.00011178825623,-2.9990062679507186,1.7171036827894035,0.6401968644520553,36.363351875285886,82.24880942927666,0.0,0.0,38.2143856531197,51.836841465874684,101.34708213344375,94.94295749341062,206.42431871722368,212.20845684090867,207.81931295137562,15277.097013511844,4,3,Mapping 1
570000,37.000113775892906,-2.999006493560065,1.1626670321383776,1.7311610385158283,33.25173592916239,81.94883212499633,0.0,0.0,39.74341253234325,51.17693881783534,101.58834555335866,95.11184188735106,204.0526789991294,207.9950150585284,203.68902898576926,15282.3101470224,4,3,Mapping 1
580000,37.000115763074305,-2.9990067231450257,-0.13843313413695907,-1.0114687517447376,38.11649662548093,81.64380771114544,0.0,0.0,40.081236597208104,52.811219449503476,101.8270154468016,95.27891081276111,206.54215419585105,211.4932151078815,207.11075160394208,15446.771456984914,4,3,Mapping 1
590000,37.00011774979246,-2.999006956704682,0.4405575470340262,0.8411298018523382,36.2015894414651,81.33378437388723,0.0,0.0,42.40354288604236,49.90078993169782,102.06305458387413,95.44413820871189,208.85294856013752,211.53912878113303,207.15165669238826,15447.935526833782,4,3,Mapping 1
600000,37.00011973603943,-2.9990071942381,-0.2763205982075186,-1.0108845096244348,38.517435334195625,81.01881108908867,0.0,0.0,41.11892676671987,51.605136513440485,102.29642615027099,95.6074983051897,209.76012284272784,214.36979776565192,209.91950427502144,15165.612511319645,4,3,Mapping 1
610000,37.00012172180726,-2.9990074357443284,-0.15481773998441947,-1.1987157811277156,38.686217345327584,80.69893761458357,0.0,0.0,40.75426623319052,49.97975248935076,102.52709375309578,95.76896562716705,205.34368258135345,209.87224933456594,205.5112995579463,15149.730111275027,4,3,Mapping 1
620000,37.000123707088015,-2.999007681222401,-1.3242218141319786,-0.3446675689178061,40.32334253883203,80.37421448231217,0.0,0.0,39.78608252190671,52.112648110862544,102.75502142661014,95.9285149986271,207.71849500819812,211.42123150772852,207.02404087944905,15204.431444819855,4,3,Mapping 1
630000,37.00012569187374,-2.9990079306713358,-0.42825460148623845,-1.2109939138213102,39.91585385071225,80.04469299033826,0.0,0.0,40.56911473382336,52.087159156532614,102.9801736379154,96.08612154654078,208.7048847397378,212.69298425923316,208.265264731051,15221.250472839021,4,3,Mapping 1
640000,37.000127676156495,-2.999008184090134,0.7414487856880808,0.29799308050913986,40.60246492806385,79.71042519474543,0.0,0.0,39.047097133809665,51.54207984127437,103.20251529256598,96.24176070479618,208.03715812163122,213.62983747077485,209.17851859507172,15162.870736045414,4,3,Mapping 1
650000,37.00012965992834,-2.9990084414777822,0.6995221112381242,0.955885478512343,40.97704331560392,79.3714639014135,0.0,0.0,38.74293061615365,51.16856866660364,103.42201174011328,96.3954082180793,209.63729318471076,215.39230590608307,210.90013307165677,15147.67217118143,4,3,Mapping 1
660000,37.00013164318134,-2.99900870283325,1.1365739812590858,-0.7094707276721475,38.537426593313654,79.02786265767661,0.0,0.0,38.122232639632735,51.19097058306764,103.63862877957969,96.54704014570578,209.41414225767295,214.6071151790775,210.12720320671045,15073.134828818158,4,3,Mapping 1
670000,37.00013362590756,-2.999008968155492,0.3121055433775744,-0.557212382528221,41.06133078345022,78.67967574386394,0.0,0.0,41.36401139393068,51.655476175967586,103.85233266486145,96.69663286540302,209.3419215722627,214.37094558035596,209.89185342819823,15170.318893360998,4,3,Mapping 1
680000,37.00013560809906,-2.9990092374434463,0.6540395713985452,0.42125142464475585,42.11127526077056,78.32695816472491,0.0,0.0,40.13157974769954,51.369048154399486,104.06309011005965,96.84416307704176,211.75651635255264,216.76447860978598,212.23121975580204,15165.124079482457,4,3,Mapping 1
690000,37.000137589747915,-2.999009510696035,1.5650204431480235,1.022054785006109,44.61699601525324,77.96976564073977,0.0,0.0,39.85757441047091,50.51152201403432,104.2708682947386,96.98960780631703,214.3034298619149,219.28448084071715,214.6943163570044,15075.91538680374,4,3,Mapping 1
700000,37.00013957084619,-2.9990097879121644,-1.1529216403466942,1.3124448609609716,42.6244837679812,77.60815459931715,0.0,0.0,39.15885687928706,51.64623693638063,104.47563486911064,97.13294440837744,206.5613155327484,212.567604573503,208.11396570736537,15113.841483714668,4,3,Mapping 1
710000,37.00014155138595,-2.999010069090726,0.709770356285882,-0.5875076641123786,46.594323661665726,77.24218216588004,0.0,0.0,39.2394023224536,51.27636052049001,104.67735795914655,97.27415057140259,209.9582060654809,215.6539158535398,211.13147956133596,15153.64025005523,4,3,Mapping 1
720000,37.000143531359285,-2.9990103542305944,-0.2560294626053087,-2.354245291300585,43.89338291561802,76.87190615484128,0.0,0.0,40.81943965021781,50.84317395588037,104.87600617161085,97.41320432012759,212.8096865513555,217.54147987699966,212.97528966654886,15077.431674505264,4,3,Mapping 1
730000,37.00014551075826,-2.9990106433306285,0.014531494975656575,-0.24762296128960054,42.98416361765757,76.49738506047048,0.0,0.0,38.72344270409829,50.7498258604177,105.0715485990212,97.55008401931484,210.93954472657902,216.48370025375462,211.93556307026668,14810.115416951056,4,3,Mapping 1
740000,37.000147489574964,-2.999010936389671,0.8513532051605112,-1.3993230068463516,44.42576941703831,76.11867804765329,0.0,0.0,38.80603203556348,49.94834603784443,105.26395482453091,97.68476837717164,214.76550950676437,219.55323719523344,214.93640325335147,15063.868269636654,4,3,Mapping 1
750000,37.00014946780147,-2.99901123340655,0.4910765153940014,0.28774437633011274,41.40753196454052,75.7358449425449,0.0,0.0,39.621835486789315,50.79380131560997,105.45319492673411,97.81723644871389,212.7340741533654,216.24824754520236,211.69676705355099,15145.040938271519,4,3,Mapping 1
760000,37.00015144542987,-2.999011534380076,0.10374595662564684,0.9719923962537409,42.24150155201384,75.34894622311899,0.0,0.0,40.01732828780854,49.506317268534566,105.63923948439252,97.94746763907476,210.78327261598048,215.16273289595782,210.62997581638913,14950.660787427623,4,3,Mapping 1
770000,37.00015342245224,-2.9990118393090457,1.0782614038012759,0.5401706811609936,44.812816617488,74.95804300961376,0.0,0.0,41.04738850674672,49.874225040571766,105.82205958108331,98.07544170675831,213.69467987434524,219.31106866914368,214.68671678949792,14775.879607283629,4,3,Mapping 1
780000,37.000155398860684,-2.9990121481922385,-0.8871005574349358,-0.9359092561551724,48.485549683236044,74.56319705487647,0.0,0.0,39.19496497491571,50.42058879340827,106.00162680976715,98.201138766837,210.26684194633913,212.16003619677127,207.68240357567961,15085.608227011651,4,3,Mapping 1
790000,37.00015737464728,-2.9990124610284177,-0.8682744505784153,-1.841468662656266,44.03714343897114,74.16447073460803,0.0,0.0,41.4958361190136,50.333308773322706,106.17791327727579,98.32453929409306,211.8936287327534,217.14085775320856,212.5539436492576,15120.6703445781,4,3,Mapping 1
800000,37.00015934980412,-2.9990127778163327,0.41138816157444463,-1.419104195934884,52.44042407850135,73.76192703750922,0.0,0.0,39.995827376264415,47.48641110551785,106.35089160871847,98.44562412610293,218.03688482272054,223.22939284507947,218.50958579197285,14988.888691472634,4,3,Mapping 1
810000,37.000161324323315,-2.9990130985547143,1.244510498422069,0.23520421038708292,46.08757202353101,73.35562955533007,0.0,0.0,39.971681727397375,50.40669412586194,106.52053495180655,98.56437446626458,214.01066986221232,218.72531036288314,214.0965431010387,14896.128499915085,4,3,Mapping 1
820000,37.00016329819695,-2.9990134232422805,1.3530128684904175,1.7401346893609808,50.375607933229794,72.94564247282398,0.0,0.0,38.97819934830118,51.18607227531303,106.68681698109535,98.68077188676673,214.03393565827835,219.6738865232265,215.02083563997738,14882.8906541377,4,3,Mapping 1
830000,37.00016527141713,-2.9990137518777313,2.306750786851388,-0.846388951155328,48.19170911493698,72.53203055760807,0.0,0.0,40.46911218784843,49.19148340288184,106.849711902143,98.79479833150009,213.05509703898562,217.26409758405381,212.65792688766695,14916.912502002933,4,3,Mapping 1
840000,37.000167243975966,-2.9990140844597515,-1.0749567672740354,0.09896401144869538,48.64767775638295,72.11485914993165,0.0,0.0,39.17129773247867,47.7068712899037,107.00919445558533,98.90643611890974,216.28268662916688,219.4212455875935,214.76513740857558,14732.84331836446,4,3,Mapping 1
850000,37.000169215865554,-2.999014420987011,0.2970358126962515,-1.6698743322909704,47.88496333242585,71.69419415235407,0.0,0.0,39.69732260107117,49.54370469596957,107.16523992112613,99.01566794478829,214.16724031308345,219.4325382901855,214.7719861898654,14754.347308617289,4,3,Mapping 1
860000,37.00017118707801,-2.999014761458162,0.2505899994130249,1.310573021745199,49.58694041162756,71.27010201933368,0.0,0.0,40.263824668634605,48.38681726216862,107.31782412144241,99.12247688500969,218.81005661384685,223.7693406049704,219.01239146240695,14923.764351518987,4,3,Mapping 1
870000,37.00017315760544,-2.9990151058718433,1.5203192032266226,1.06111352316246,50.275198465393764,70.84264974672986,0.0,0.0,38.99959411356724,49.378215492054764,107.46692342600376,99.22684639820264,213.59518183668212,218.1510052565583,213.5093127963653,14786.587674388657,4,3,Mapping 1
880000,37.00017512743997,-2.999015454226676,-1.1618110920583968,1.0663807159851448,48.878202077935,70.41190486121924,0.0,0.0,38.7114101268486,47.444738057931424,107.61251475480539,99.32876032836377,207.51082193853696,214.8087902509757,210.23409631515787,14825.09811613472,4,3,Mapping 1
890000,37.0001770965737,-2.9990158065212658,0.020793510342960567,-0.6683867141835755,48.57972130018927,69.97793540962824,0.0,0.0,39.30851899800658,49.93731900475877,107.75457558201418,99.42820290740993,215.9532388956454,221.51518393635382,216.79342317950423,14738.575602194547,4,3,Mapping 1
900000,37.00017906499877,-2.9990161627542036,2.21368964174564,-0.668516699506297,49.14872794003277,69.54080994818341,0.0,0.0,39.38834823592673,49.36915349388653,107.89308393952727,99.52515875766909,219.62125384180243,224.07763977943463,219.29696592232787,14847.943743594205,4,3,Mapping 1
910000,37.00018103270729,-2.9990165229240637,0.21497180098365903,0.4718511250807244,50.91766530112972,69.1005975316812,0.0,0.0,39.72779633514825,49.17376265457645,108.02801842044231,99.61961289430961,214.64435432810419,219.72266820091616,215.0306983626433,14956.180790230188,4,3,Mapping 1
920000,37.00018299969139,-2.9990168870294047,0.8717580865730832,0.7855757118231852,51.99617390500858,68.65736770257912,0.0,0.0,38.86965374507521,47.78331612552574,108.15935818243936,99.71155072770756,211.51519524862962,217.6174986083511,212.96631430395274,14654.781416172584,4,3,Mapping 1
930000,37.00018496594319,-2.99901725506877,0.8702593268083069,1.3174064126496585,47.399762253345976,68.21119048000976,0.0,0.0,41.45279488614182,48.48995281644052,108.28708295107339,99.80095806575137,214.2654753509868,219.35991596484402,214.6672890267199,14759.334054363946,4,3,Mapping 1
940000,37.00018693145484,-2.9990176270406863,0.771932715815311,0.26345528230494275,55.22939792068969,67.76213634871954,0.0,0.0,40.55468511747815,47.397930445336435,108.41117302297711,99.88782111608398,216.50754149941656,222.64089521413325,217.87381611748276,14716.321886641816,4,3,Mapping 1
950000,37.00018889621847,-2.9990180029436657,0.9394018420516519,-0.8038962543060089,48.75048747810536,67.31027624793381,0.0,0.0,39.18368070809287,48.95356230306438,108.53160926897364,99.97212648828155,217.38154646174564,220.80199183247467,216.0700575716554,14627.355162339807,4,3,Mapping 1
960000,37.000190860226205,-2.9990183827762036,-0.9272505692337201,0.11445330886651861,49.99205009134851,66.85568156015046,0.0,0.0,40.32692445754262,47.919784845694394,108.64837313709843,100.05386119596889,216.7010902163097,222.2281040256629,217.46135120720106,14674.603970613754,4,3,Mapping 1
970000,37.000192823470194,-2.99901876653678,-0.525829492885941,0.42796953686368655,49.2803265282444,66.39842409986304,0.0,0.0,37.29126654993773,47.50966709450286,108.76144665553,100.133012658871,213.33422367211762,217.5073402402797,212.8376815079943,14576.478621007467,4,3,Mapping 1
980000,37.00019478594258,-2.9990191542238596,0.8830237048863016,-0.621766633296678,50.76505650859705,65.93857610221596,0.0,0.0,39.57552353418905,48.36761445611548,108.87081243542902,100.20956870480032,216.16917790739996,221.44051436078672,216.68217382362002,14688.283333122074,4,3,Mapping 1
990000,37.00019674763551,-2.9990195458358904,1.6598440380222121,0.9677360538904092,57.31471745613543,65.4762102115933,0.0,0.0,40.06901673691619,47.74366876628156,108.97645367368534,100.28351757157974,219.54610217020382,224.2874695945379,219.46365838327353,14827.586856807562,4,3,Mapping 1
1000000,37.00019870854114,-2.999019941371306,1.8712178146026266,0.386236920293467,47.63893295945403,65.01139947014262,0.0,0.0,41.325957401801475,46.59922675265824,109.07835415557241,100.3548479089007,218.40136719290197,222.30139894467416,217.51604593412344,14696.27449983087,4,3,Mapping 1
1010000,37.000200668651615,-2.9990203408285234,-1.1795296892731413,-0.53702225233664,51.566739018810644,64.5442173062363,0.0,0.0,40.50410721402589,46.9579414221524,109.17649825730886,100.4235487801162,215.83178427472234,220.90912492543595,216.14951265673466,14548.206040666539,4,3,Mapping 1
1020000,37.0002026279591,-2.9990207442059442,-0.33972792359638726,1.3128763555813736,51.93431889596059,64.07473752287164,0.0,0.0,40.369278003880744,49.942211194780256,109.27087094852662,100.48960966396864,221.0857929208822,225.30631911220271,220.44765284353127,14594.281837844917,4,3,Mapping 1
1030000,37.000204586455745,-2.999021151501954,-1.5387478646057433,0.6129024329770008,51.47171634779458,63.60303428601183,0.0,0.0,40.87207625886934,48.859623088735454,109.36145779464532,100.55302045625172,219.59503479378262,225.32119048873287,220.45788944752056,14752.529909208437,4,3,Mapping 1
1040000,37.00020654413371,-2.999021562714923,0.15070289742889303,-0.7554031677086774,56.35748527368631,63.12918211286963,0.0,0.0,39.579774357301325,48.97536942764508,109.44824495915265,100.61377147140685,217.85316630981364,222.4937146163377,217.68718164560278,14461.44954146486,4,3,Mapping 1
1050000,37.00020850098518,-2.999021977843206,0.7232537755848182,-0.4622461833952982,53.56460833364489,62.65325586013553,0.0,0.0,40.02058590150611,46.1469813244217,109.53121920579014,100.6718534440531,218.35809532660633,222.06378145125382,217.26228495377538,14498.213455478126,4,3,Mapping 1
1060000,37.000210457002304,-2.9990223968851417,0.8028201912351862,0.5037014488303352,52.93235438482767,62.175330712152316,0.0,0.0,39.40844204675558,47.084613237951935,109.61036790064416,100.72725753045091,221.69323097261844,226.32180918562693,221.4239122467293,14427.85986048989,4,3,Mapping 1
1070000,37.00021241217727,-2.999022819839053,-1.201010201004535,1.1136023395506724,52.05349720532524,61.69548216903774,0.0,0.0,38.48579682751058,47.942147992422726,109.68567901414175,100.77997530989923,217.98094415391415,222.70757305261233,217.88362949558018,14616.418323582424,4,3,Mapping 1
1080000,37.00021436650224,-2.999023246703248,0.1881610054159643,-0.101580975358568,55.60936212900824,61.21378603475752,0.0,0.0,41.02733079406623,46.94341649135462,109.75714112295105,100.82999878606574,216.90458069182267,223.61416233356118,218.76630110115948,14385.931450534676,4,3,Mapping 1
1090000,37.000216319969404,-2.9990236774760173,-0.22056070861850532,0.3547517147553699,53.13311006317591,60.730318405150115,0.0,0.0,41.22304107514155,45.61626125961236,109.82474341178579,100.87732038825006,223.5537451899435,227.73999050655456,222.79832368717305,14328.911993190235,4,3,Mapping 1
1100000,37.00021827257095,-2.9990241121556385,0.04583676276434257,-0.10103455105390471,56.62870809685438,60.24515565590562,0.0,0.0,39.39822963740602,46.544489506309894,109.88847567511394,100.92193297257975,223.02043572978315,224.54389519182823,219.6672815416046,14442.658956401086,4,3,Mapping 1
1110000,37.00022022429905,-2.999024550740372,-0.9900812538224476,0.5813252287162257,52.90536773783364,59.75837443050025,0.0,0.0,41.20098840013398,45.67905902905525,109.94832831876982,100.96382982313888,219.18097318936753,223.24639200100873,218.3936843350832,14424.741879704945,4,3,Mapping 1
1120000,37.0002221751459,-2.999024993228462,-0.08075485685965758,-0.08592339565791633,55.1741392015156,59.27005162808859,0.0,0.0,39.80302528689045,46.738072510442585,110.00429236146988,101.00300465302891,215.83787181103648,220.3095274569151,215.51644179147274,14411.52342153349,4,3,Mapping 1
1130000,37.00022412510369,-2.9990254396181384,-0.5606083212396918,0.06960547463078792,54.12593377388405,58.78026439135557,0.0,0.0,40.2448391026237,46.50703835704831,110.05635943623135,101.03945160536193,220.77360556261146,224.50729781650176,219.6185880465848,14466.342466315715,4,3,Mapping 1
1140000,37.00022607416463,-2.9990258899076148,0.3284159126237739,0.6702381483824097,56.174337605696685,58.289090094329765,0.0,0.0,39.80852574679717,44.58554439125213,110.10452179169413,101.07316525418588,220.51769169103028,224.33612990724924,219.44685400012642,14482.147838197885,4,3,Mapping 1
1150000,37.000228022320904,-2.999026344095089,0.44429967120739755,0.5059227407045582,53.735645829795075,57.7966063301603,0.0,0.0,40.10380469502656,46.7494865532239,110.14877229334529,101.1041406053417,219.3264490430538,223.3095280390739,218.43835277225267,14219.010890333073,4,3,Mapping 1
1160000,37.000229969564735,-2.999026802178744,0.09067743279006323,-0.2290180540675523,59.54111495153218,57.30289089885907,0.0,0.0,40.32264761568298,46.45124525326651,110.1891044246461,101.13237309725227,221.94105067842358,226.542903109066,221.5968611678007,14213.837474180977,4,3,Mapping 1
1170000,37.00023191588831,-2.999027264156747,0.20268955264130575,-0.9316241950838052,55.3937609021818,56.80802179501031,0.0,0.0,39.05958523059035,46.95190812131524,110.22551228806151,101.15785860164306,215.78894413789047,222.06900656083047,217.21639235560622,14362.053615696188,4,3,Mapping 1
1180000,37.00023386128385,-2.9990277300272483,0.4989231991464028,0.9564000775972893,54.91689761686003,56.312077195449426,0.0,0.0,40.396195669006566,46.46146005835425,110.25799060599181,101.18059342419426,217.15800337932663,221.52561112043605,216.6806321847843,14256.909863649782,4,3,Mapping 1
1190000,37.00023580574358,-2.9990281997883845,-0.5120779376773912,-1.3679981285773068,56.18911223765555,55.815135446913004,0.0,0.0,40.409178655670146,46.172528664326904,110.28653472160636,101.20057430512445,218.59384320194278,223.1967249850245,218.31092645105,14131.692316835353,4,3,Mapping 1
1200000,37.0002377492597,-2.999028673438276,-1.0756602959144037,-0.6311606311025901,56.99177107900501,55.31727505366204,0.0,0.0,38.41590082172786,46.415964004892835,110.31114059957922,101.21779841970545,220.85290232892407,224.7368128791804,219.81300164239084,14358.488132408318,4,3,Mapping 1
1210000,37.00023969182445,-2.9990291509750264,-0.09570018213864112,-1.9398619350951891,54.668656141314855,54.81857466508016,0.0,0.0,40.266112106056895,45.30769267754283,110.33180482672671,101.2322633787087,217.0215585995735,221.75288684561767,216.89020837387537,14158.453983796284,4,3,Mapping 1
1220000,37.00024163343004,-2.999029632396726,0.5999300860711413,-1.7335139638116668,53.476888355203506,54.319113063249134,0.0,0.0,39.62838817118334,46.85206313716879,110.34852461254648,101.24396722878254,216.69411032899706,222.43662582121314,217.554698389356,14417.420795176353,4,3,Mapping 1
1230000,37.000243574068726,-2.9990301177014476,0.8465111086713701,0.7573232605825573,55.23482068891742,53.81896915050319,0.0,0.0,38.46837768419387,47.07473870135733,110.36129778965848,101.25290845276093,218.3629147853552,223.13292820496483,218.2314498415242,14118.638814846545,4,3,Mapping 1
1240000,37.000245513732715,-2.999030606887249,1.1435981178406138,0.5435883378408758,53.99147699139649,53.31822193696448,0.0,0.0,41.49785714737689,46.02922111607005,110.37012281414724,101.25908596990307,218.67320931846353,224.7560585425405,219.8146257555556,14055.855562326315,4,3,Mapping 1
1250000,37.00024745241426,-2.9990310999521737,0.3338474569628061,0.889558799988424,55.516188416000674,52.81695052806147,0.0,0.0,39.82494472156108,43.75058512289837,110.37499876580583,101.26249913606408,217.78354287624555,223.3750051161489,218.45966270528012,14195.316669710957,4,3,Mapping 1
1260000,37.000249390105594,-2.9990315968942474,0.40043645547380524,0.03297305713434307,55.96392486501299,52.31523411203223,0.0,0.0,37.63771259072863,46.12260206461409,110.37592534828121,101.26314774379685,222.89095109520264,226.804745509325,221.80959346450433,14053.379348620652,4,3,Mapping 1
1270000,37.000251326798974,-2.9990320977114826,-2.2877983920416876,-0.0867467357682238,54.367409738610654,51.81315194741477,0.0,0.0,40.05947343193387,44.32968823889765,110.37290288912104,101.26103202238473,212.41448011068536,220.26583135911545,215.4104791588744,14005.79137748134,4,3,Mapping 1
1280000,37.000253262486645,-2.9990326024018743,-1.9924927582454228,-1.2909315003992454,55.00799886044653,51.310783350526144,0.0,0.0,38.46678963432081,44.1572996371132,110.36593233972197,101.25615263780537,220.56123212892652,225.58929531966842,220.61228223250316,14088.371328158535,4,3,Mapping 1
1290000,37.00025519716086,-2.9990331109634036,-1.4742326314712217,-0.15702606253774617,59.20909824515927,50.80820768293248,0.0,0.0,37.68272364940279,46.058751687649774,110.35501527517927,101.24851069262549,218.16927811258745,223.5190049805578,218.58339198943634,13905.528710762095,4,3,Mapping 1
1300000,37.00025713081388,-2.9990336233940353,-1.4457502071640664,-0.4675361354796682,57.63094197448041,50.30550433891185,0.0,0.0,39.25659278356453,44.33113964973202,110.3401538940381,101.23810772582667,221.18194286570173,225.6536264330367,220.66656212892303,13977.432930858697,4,3,Mapping 1
1310000,37.00025906343796,-2.999034139691719,0.8008738958054018,0.31460822169300967,53.150964512986796,49.80275273291198,0.0,0.0,39.030520324350476,45.565520250967225,110.32135101794613,101.22494571256229,225.94178311330825,228.7112444567556,223.6522309917228,14091.391091181236,4,3,Mapping 1
1320000,37.00026099502537,-2.9990346598543884,-0.8860876468708451,-0.3009955367652833,56.41945840922319,49.300032287004775,0.0,0.0,40.24236804562539,46.04348939049075,110.2986100912078,101.20902706384547,220.1436590086158,224.48764420459324,219.51776207129902,14025.255319692911,4,3,Mapping 1
1330000,37.00026292556839,-2.999035183879962,-0.9868930534133716,-0.18547684961880023,55.00296445953652,48.79742241833963,0.0,0.0,39.53992383333093,43.20617870286811,110.27193518024023,101.19035462616816,220.7453948500893,224.98816471374533,220.0028990219089,13969.426528852155,4,3,Mapping 1
1340000,37.000264855059285,-2.999035711766343,1.8371374241507046,0.9232393140503236,54.78555154475371,48.295002526597514,0.0,0.0,37.71237149661858,43.71265590490845,110.2413309729308,101.16893168105156,222.057373097474,226.2442900804224,221.22686478705205,13952.948383924177,4,3,Mapping 1
1350000,37.00026678349034,-2.999036243511419,0.1219182213772576,0.6552798486166118,52.45391749269816,47.79285198144785,0.0,0.0,41.317320483298616,44.18269106146688,110.20680277789661,101.14476194452763,215.11707647561278,221.7635850976213,216.84128786312831,13940.539824256617,4,3,Mapping 1
1360000,37.00026871085383,-2.999036779113062,0.6424650415316887,0.6207098790291025,54.93815200086594,47.291050110010126,0.0,0.0,39.29418855007008,43.84822945120922,110.16835652364584,101.11784956655208,221.76462934691017,225.76880470543853,220.7532899576018,13845.862206380527,4,3,Mapping 1
1370000,37.000270637142044,-2.999037318569129,-1.4584180505710542,-0.19994076396369517,54.65427913030999,46.789676184322076,0.0,0.0,39.82285349065318,45.40238064276697,110.12599875764116,101.08819913034881,221.2103803982952,226.01399163675737,220.98870840756925,13905.106884193165,4,3,Mapping 1
1380000,37.000272562347284,-2.999037861877461,-0.8388797541788152,0.5356776843497997,57.56636047068939,46.28880940881689,0.0,0.0,41.46037752969245,43.16542282091723,110.07973664526547,101.05581565168583,217.88926116904796,223.99267617763394,219.00805289377172,13926.561551463476,4,3,Mapping 1
1390000,37.000274486461834,-2.999038409035884,-0.6027052940282358,0.31857367326915914,51.861222222631845,45.78852890781079,0.0,0.0,40.77705862192966,43.0706329399672,110.02957796868989,101.02070457808293,222.98688409152822,225.52571660084377,220.50266587227338,13769.6211666291,4,3,Mapping 1
1400000,37.000276409478,-2.999038960042209,-0.8011304319394671,1.3586583453377006,57.44175053420648,45.288913713003446,0.0,0.0,38.87179122476594,44.20713275429684,109.97553112564442,100.9828717879511,219.45157373871305,224.36414652875428,219.36267748216102,13698.728703931381,4,3,Mapping 1
1410000,37.00027833138809,-2.99903951489423,0.9597878784610202,-1.0471672166892971,49.83746008641393,44.790042750992896,0.0,0.0,41.05673191701271,44.850154882687534,109.91760512809122,100.94232358966386,215.94914920400709,222.44516729182223,217.48222296378856,13713.285454363377,4,3,Mapping 1
1420000,37.0002802521844,-2.999040073589728,0.43920646892250953,-1.4024031180654628,57.25092775538901,44.29199483080718,0.0,0.0,39.95322310432877,43.58935736803821,109.8558096008011,100.89906672056077,215.84123969547332,221.21575808563642,216.2760139275316,13836.002429449756,4,3,Mapping 1
1430000,37.00028217185926,-2.999040636126467,0.3971061066787439,1.847563764360635,52.47705635417075,43.79484863145449,0.0,0.0,40.535779768691576,43.35029173942134,109.79015477983287,100.85310834588302,220.73573570992642,225.80425838822413,220.75773653112265,13856.179242403083,4,3,Mapping 1
1440000,37.00028409040498,-2.999041202502195,0.7743354266535482,-1.2560993751531884,53.17031508620302,43.29868268949388,0.0,0.0,39.78192193032271,41.90519776180665,109.72065151091647,100.80445605764153,223.32867423850234,227.3259570792676,222.24108114272212,13611.415386119817,4,3,Mapping 1
1450000,37.000286007813884,-2.9990417727146466,0.20920256989343294,-1.1471208109552196,48.46228506260674,42.80357538662845,0.0,0.0,40.28370980490006,44.07276843329219,109.64731124773948,100.75311787341764,216.67662888416515,221.95503663705168,216.98605595566693,13748.71949621782,4,3,Mapping 1
1460000,37.0002879240783,-2.9990423467615392,0.14678427854056902,1.1026469633711795,55.676750338530596,42.309604937323044,0.0,0.0,39.4442359446243,45.304860080408794,109.57014605013781,100.69910223509646,219.9213444980332,224.19142272656103,219.1680901014361,13748.07568306127,4,3,Mapping 1
1470000,37.00028983919056,-2.9990429246405768,1.303568628780949,-0.8686867397597875,53.85192929840677,41.8168493764483,0.0,0.0,39.837037415225794,43.9732523940152,109.48916858219053,100.64241800753337,215.0170136894891,220.82274193385052,215.8706687917674,13688.325096426826,4,3,Mapping 1
1480000,37.000291753142996,-2.999043506349446,1.2767496170289077,-1.322631419671449,54.08303921906724,41.32538654695317,0.0,0.0,39.58486556922778,41.79180812181519,109.40439211021925,100.58307447715347,217.32557796532896,222.2060646178783,217.21872274368332,13691.723315505124,4,3,Mapping 1
1490000,37.000293665927956,-2.9990440918858194,-0.17956231779886533,1.9334042661609208,53.728916263755195,40.835294087567576,0.0,0.0,40.01863058779048,42.167073137886774,109.3158305006924,100.52108135048468,216.62118097950517,222.01030849563065,217.0231172609735,13572.86953210172,4,3,Mapping 1
1500000,37.000295577537784,-2.999044681247354,-0.35140921550838544,-0.9340093535434831,50.26921344501957,40.346649420537624,0.0,0.0,38.484699978427294,42.464933673799884,109.22349821803465,100.45644875262425,213.4403609961537,220.54302094038408,215.5845756993002,13620.381281031561,4,3,Mapping 1
1510000,37.00029748796483,-2.9990452744316913,1.304921377592116,0.7545823397221207,50.78820577612284,39.859529739394674,0.0,0.0,40.648042677195534,43.74415587989744,109.12741032234192,100.38918722563935,218.4897255078806,222.56540650426328,217.55723886557766,13380.193420458947,4,3,Mapping 1
1520000,37.000299397201445,-2.9990458714364574,0.48488019352269807,0.306577028777736,48.461315629395465,39.37401199676083,0.0,0.0,41.6458186518043,42.996782296588115,109.02758246700223,100.31930772690157,218.49025038120857,224.58466028009468,219.52676364569783,13479.017529066048,4,3,Mapping 1
1530000,37.000301305239994,-2.999046472259264,0.2114647604054691,0.33054393302297946,51.573477282344854,38.8901728921923,0.0,0.0,39.573104766837105,43.80511859051886,108.92403089622294,100.24682162735606,217.11188144925694,223.53364610799213,218.49514799522228,13573.132082757716,4,3,Mapping 1
1540000,37.000303212072836,-2.999047076897706,0.23760415669452145,0.2511657881280957,50.553953215098986,38.40808886006283,0.0,0.0,38.16991706485022,41.93587870003495,108.81677244246445,100.17174070972511,216.60145758878113,221.15563548329737,216.16651237762187,13534.188924355112,4,3,Mapping 1
1550000,37.00030511769235,-2.9990476853493644,-1.5813555364186702,1.1738316496618109,51.17966419679062,37.92783605748899,0.0,0.0,38.14091561675844,42.653612416121625,108.70582452378122,100.09407716664685,220.29175645695426,224.9436461125651,219.86476992724573,13597.12849498623,4,3,Mapping 1
1560000,37.0003070220909,-2.9990482976118042,1.6025637435109725,0.017838900187410613,49.235749417134315,37.449490352299264,0.0,0.0,39.39439161265174,41.16889617690831,108.59120514107006,100.01384359874905,217.64096146047936,222.29486941987088,217.2715511571183,13530.315164213716,4,3,Mapping 1
1570000,37.000308925260875,-2.9990489136825755,-1.8191180849705644,-0.44204850325413186,50.13857605457563,36.97312731104888,0.0,0.0,41.99440551880033,41.76681821444973,108.47293287522652,99.93105301265857,220.44010824936794,225.34261400683607,220.24611881740142,13514.93166691904,4,3,Mapping 1
1580000,37.00031082719465,-2.999049533559213,-1.3041232159490428,0.40684130267526847,48.85442197973167,36.49882218708213,0.0,0.0,39.45575864948343,41.646969839273254,108.35102688420953,99.84571881894666,214.90061741887428,218.7844207124516,213.83206997190234,13376.22441354391,4,3,Mapping 1
1590000,37.000312727884626,-2.9990501572392363,-0.5058580080083057,-1.1337015246941862,49.844252283092246,36.026649908644345,0.0,0.0,40.51427086617851,40.80718694015637,108.2255069000149,99.75785483001043,220.36755751889064,227.42907386706355,222.27669996194567,13383.594599413924,4,3,Mapping 1
1600000,37.00031462732319,-2.9990507847201493,-0.7003851317835872,0.23704577702686513,49.539094818690046,35.556685067045024,0.0,0.0,40.02891772463984,43.25633946222841,108.09639322555829,99.6674752578908,215.93822556965858,220.6827904121021,215.67903675928662,13363.42214092667,4,3,Mapping 1
1610000,37.00031652550274,-2.9990514159994417,0.8242469331916797,0.27240912915164867,49.21162737670607,35.089001904874316,0.0,0.0,41.16159646673668,42.16276666354263,107.96370673146765,99.57459471202736,214.16288294830454,218.40765376670328,213.4513142498224,13446.876552873768,4,3,Mapping 1
1620000,37.00031842241568,-2.999052051074587,0.9482978856447511,-0.5467803545806074,46.20843495035182,34.62367430427461,0.0,0.0,39.32815876003045,41.24379274353401,107.82746885278642,99.47922819695049,210.74264661590786,218.42238370563658,213.46153757245278,13522.981473222138,4,3,Mapping 1
1630000,37.00032031805442,-2.999052689943044,-1.2640522786317536,-0.47415539526160627,48.82395228643126,34.160775775268974,0.0,0.0,41.85261564288985,41.856824478888875,107.68770158558716,99.38139110991102,217.0638934303253,222.28627860948018,217.23342904978222,13452.913272514044,4,3,Mapping 1
1640000,37.00032221241138,-2.9990533326022555,0.11347003053037777,0.40933349034227073,48.86923194615552,33.70037944414844,0.0,0.0,39.79648308669694,41.87817175435675,107.54442748349679,99.28109923844775,215.57907349229419,221.99558535734647,216.94510335132756,13409.192184845875,4,3,Mapping 1
1650000,37.000324105478974,-2.999053979049651,1.1465275499258107,-0.5865582395213176,49.910283971837764,33.24255804191987,0.0,0.0,39.41001787799414,41.09378448668892,107.39766965413371,99.1783687578936,215.49202838471572,221.5661207993831,216.52117736673807,13477.1601702902,4,3,Mapping 1
1660000,37.000325997249625,-2.999054629282643,0.7036855733188184,-2.0767330563175666,49.51851881069665,32.78738389281634,0.0,0.0,40.48424360341969,41.890859759346725,107.24745175545732,99.07321622882012,215.50840393853454,220.90354524823283,215.86946922588518,13326.85417577715,4,3,Mapping 1
1670000,37.00032788771577,-2.9990552832986297,0.8558096272530157,-0.030539190099622603,48.07520646142025,32.33492890287168,0.0,0.0,41.10871216496525,42.69153428757113,107.09379799203072,98.9656585944215,212.67719243269718,217.09920086539697,212.1476741507192,13182.31464634442,4,3,Mapping 1
1680000,37.00032977686983,-2.9990559410949937,0.8909125613082404,0.14623712384478785,46.20490715919773,31.88526454856121,0.0,0.0,40.99271485745688,42.18048014453334,106.93673311119696,98.85571317783787,215.2983445105863,218.8554722749428,213.8597094619125,13490.815755527516,4,3,Mapping 1
1690000,37.00033166470427,-2.9990566026691035,-0.0337269687091934,-0.6231617437547365,48.5103343918179,31.43846186551017,0.0,0.0,40.11286763716364,42.7877512718175,106.77628239916959,98.7433976794187,207.2284770209087,214.15405889834562,209.26152445655146,13198.763489237288,4,3,Mapping 1
1700000,37.00033355121151,-2.9990572680183107,0.008853599846466057,1.8992705795739284,46.47122598833024,30.994591437271964,0.0,0.0,41.20312595343894,40.13888190193538,106.6124716770381,98.62873017392667,209.38893530541085,216.83056456223403,211.87274239030097,13168.121780542842,4,3,Mapping 1
1710000,37.00033543638401,-2.9990579371399537,0.14979645410179182,-0.5652016986727415,41.32623487366707,30.553723384177637,0.0,0.0,39.804062289345346,42.86965749630718,106.44532729668879,98.51172910768216,216.58133275817968,219.72002059384678,214.69193546525062,13206.988871799482,4,3,Mapping 1
1720000,37.000337320214236,-2.9990586100313545,-0.6178175638386352,0.8077354905748304,43.62970366636492,30.11592735225876,0.0,0.0,38.92376746563687,40.963204751912315,106.27487613664191,98.39241329564933,208.66651054538153,214.22578763346976,209.3193422511039,13164.67977693522,4,3,Mapping 1
1730000,37.00033920269464,-2.9990592866898207,-0.7523664658566311,-1.418817866925818,44.14504684307851,29.68127250224503,0.0,0.0,40.52551248708479,41.52295007784578,106.10114559780543,98.2708019184638,217.35464865982303,222.6515088512742,217.54783660453188,13239.749871115706,4,3,Mapping 1
1740000,37.00034108381769,-2.9990599671126446,1.800829959857218,1.4416790521594576,45.15408371998963,29.249827498638624,0.0,0.0,40.87209209499796,42.03058087602694,105.9241635991465,98.14691451940254,216.12452105991724,220.09569503270504,215.04640543313505,13143.110473805917,4,3,Mapping 1
1750000,37.00034296357586,-2.999060651297103,1.0632409722327862,-1.8281019126942406,45.451390318368716,28.821660498866983,0.0,0.0,38.93654276965323,40.622334417240054,105.74395857328088,98.02077100129661,210.6255800941581,214.86529273709394,209.9318932458172,13129.133088029213,4,3,Mapping 1
1760000,37.00034484196163,-2.9990613392404586,1.3734465646239176,-2.0847412448097025,46.15396158286044,28.396839142515596,0.0,0.0,38.441406378219504,41.821506045449674,105.56055946198134,97.89239162338694,212.1861306458004,218.39669486709192,213.37804328893614,13253.804476268873,4,3,Mapping 1
1770000,37.00034671896747,-2.999062030939958,0.6089164375945688,0.026241779172422354,44.970628517455516,27.975430540642712,0.0,0.0,39.0871301683707,40.15780662994479,105.37399571160557,97.7617969981239,212.70072960437307,217.74770631298483,212.73981115831805,13000.243010186285,4,3,Mapping 1
1780000,37.00034859458589,-2.9990627263928338,1.1404885889968968,0.1461515280323089,43.67188239681206,27.557501265177468,0.0,0.0,40.0314286178425,40.08109514371652,105.18429726844441,97.62900808791109,211.05378979279365,216.01663159947674,211.0444249477087,13059.160384592455,4,3,Mapping 1
1790000,37.000350468809366,-2.999063425596303,-0.48223527919907044,0.03023584827301176,41.76812819730434,27.143117338403133,0.0,0.0,40.672424142045664,39.66057373983177,104.99149457399108,97.49404620179375,212.3857171523498,217.19333245972655,212.18989474171687,13064.945012417218,4,3,Mapping 1
1800000,37.00035234163041,-2.9990641285475674,0.27780590921227477,0.2017986756672112,42.99682397042528,26.73234422252738,0.0,0.0,40.92429954312479,40.28521210295459,104.79561856013221,97.35693299209254,210.98522078035876,215.12021013004673,210.16042412079594,13150.720093115671,4,3,Mapping 1
1810000,37.000354213041525,-2.9990648352438143,0.0027849680165117183,0.6405215053375758,41.342174219653664,26.32524680934081,0.0,0.0,39.13344392945627,40.21359535227592,104.59670064426136,97.21769045098296,209.3329107687038,215.30324696210863,210.3351311640146,13080.401291105487,4,3,Mapping 1
1820000,37.00035608303522,-2.9990655456822157,-1.9380846560421148,-0.8408301429923438,38.18574895669035,25.921889409965747,0.0,0.0,39.599166994272814,41.803232673486235,104.3947727243159,97.07634090702112,211.64493680718584,216.1397809188415,211.14823660548774,13013.194031004701,4,3,Mapping 1
1830000,37.000357951604016,-2.9990662598599283,-0.7077419803410607,1.1035683885590624,41.879432155385544,25.52233574469662,0.0,0.0,40.08997153431473,40.90679686881882,104.18986717373787,96.9329070216165,208.72192432801552,215.66945751100067,210.6846584911012,13023.08724691906,4,3,Mapping 1
1840000,37.000359818740435,-2.999066977774095,0.2158053219184465,-0.577270695072605,38.89431270838623,25.12664893293387,0.0,0.0,40.541360067422836,41.009655350879505,103.9820168363599,96.78741178545194,208.75828536596606,215.04547794101634,210.0709967382545,13141.54903249534,4,3,Mapping 1
1850000,37.000361684436996,-2.999067699421843,0.4204227278668034,-1.4720531155596863,43.38299015519407,24.7348914832126,0.0,0.0,41.109361822624486,39.998908065032694,103.7712550212166,96.63987851485162,210.15477698019092,214.74281508708887,209.7712367755093,12984.241678913684,4,3,Mapping 1
1860000,37.000363548686245,-2.9990684248002832,1.9817236539693879,0.035359123336225096,36.97108192749135,24.34712528332784,0.0,0.0,40.7858286867817,39.02584665306531,103.55761549728268,96.49033084809787,212.16886194378583,215.67262698659636,210.6754063480213,12936.807639148185,4,3,Mapping 1
1870000,37.00036541148072,-2.9990691539065146,-0.28085853884236267,-0.6483090294887478,39.26324531924965,23.963411590557815,0.0,0.0,41.57396670201089,40.63091089687877,103.34113248813819,96.33879274169672,210.77541781246836,214.95930692770165,209.9745120125243,13102.338546343735,4,3,Mapping 1
1880000,37.000367272812966,-2.999069886737619,0.6316159282608201,0.042243101714745095,40.802262922417626,23.583811021986854,0.0,0.0,41.714489796296206,39.55781922525252,103.12184066656215,96.1852884665935,204.54802792835957,210.56687615051473,205.67992122227352,13041.633086147032,4,3,Mapping 1
1890000,37.00036913267553,-2.9990706232906637,-1.2123525839663463,1.8361097614923025,39.37220601398886,23.208383544929422,0.0,0.0,41.20548488880866,39.782602767686036,102.89977514905507,96.02984260433855,206.96426286346832,211.08693566797334,206.18388293185387,12973.25606580324,4,3,Mapping 1
1900000,37.00037099106097,-2.999071363562701,-0.6347520322366488,0.16266739188555102,37.784755063592364,22.837188467456777,0.0,0.0,40.76000938072833,39.40230767465369,102.67497149029151,95.87248004320406,210.23811413822827,215.26832903901663,210.26404477340947,13026.590493321544,4,3,Mapping 1
1910000,37.000372847961856,-2.9990721075507696,-1.196100798117656,-0.2053516529322267,35.18183067694477,22.47028442902781,0.0,0.0,39.54519662784718,39.90132604470376,102.4474656775032,95.71322597425224,211.5024990089164,215.10608878319894,210.10147172666967,12788.463951597589,4,3,Mapping 1
1920000,37.00037470337075,-2.999072855251892,0.4888184039971883,0.22174920327581624,36.56275324796893,22.107729391225497,0.0,0.0,41.67435530991888,38.84449561271767,102.21729412479411,95.55210588735588,207.4540175933447,212.67316792645104,207.7210969745771,12980.876334154194,4,3,Mapping 1
1930000,37.00037655728024,-2.999073606663076,-0.6712307630012144,0.3999957420202461,33.41253543302663,21.749580628600388,0.0,0.0,40.03363033084557,40.467428576645524,101.98449366738782,95.38914556717148,206.61508944414845,210.59217344232923,205.68454031052022,12991.533424990934,4,3,Mapping 1
1940000,37.000378409682895,-2.999074361781314,-1.2227490948373214,-0.7284285962753838,35.05064850654264,21.395894719622742,0.0,0.0,39.12541056144349,39.76358336247167,101.74910155580858,95.22437108906601,204.32932241435427,212.45268678210473,207.49764306569594,12912.354357606016,4,3,Mapping 1
1950000,37.000380260571305,-2.9990751206035857,-0.9067338625901848,-0.6553804257154507,34.47731649107425,21.046727537744466,0.0,0.0,38.21509884910704,38.95280462525687,101.51115544999658,95.0578088149976,206.51684153100052,211.7802989614908,206.83689712031526,12798.02332820695,4,3,Mapping 1
1960000,37.000382109938066,-2.9990758831268542,-1.5521918476549517,1.1171636166348133,33.230295891478924,20.70213424257262,0.0,0.0,41.517337405818786,38.53673212501869,101.27069341335873,94.88948538935111,201.77418552138107,206.8237144683863,201.99206429055621,12849.309984417474,4,3,Mapping 1
1970000,37.000383957775774,-2.999076649348068,-0.8124031290664969,1.8832186986335748,34.10910297772541,20.362169271155516,0.0,0.0,39.15910132886993,40.53612572251584,101.02775390675552,94.71942773472887,203.88854380656926,209.73455456855854,204.83090275656633,12744.686114750448,4,3,Mapping 1
1980000,37.000385804077034,-2.9990774192641605,0.45243567167085735,-0.45959444372821556,31.788688833580164,20.026886329383057,0.0,0.0,39.177063666047395,38.31145134851459,100.78237578242519,94.54766304769763,199.69556647531059,206.32582944954433,201.49793883505637,12802.53398461626,4,3,Mapping 1
1990000,37.00038764883447,-2.9990781928720516,0.40854430319416296,-2.7510965270193006,29.89404083025606,19.6963383835026,0.0,0.0,39.07777754464363,37.98480937880029,100.53459827784607,94.37421879449225,203.24210410216205,207.84669908971745,202.9792565184061,12775.526045543564,4,3,Mapping 1
2000000,37.00038949204068,-2.999078970168645,0.091747798473861,0.11888438759792617,29.9900453695478,19.37057765175153,0.0,0.0,38.926031054816214,38.798056879956604,100.28446100953808,94.19912270667665,203.21526698127505,208.44367334630755,203.55827475225345,12772.137932758596,4,3,Mapping 1
2010000,37.000391333688306,-2.999079751150831,-1.0026061845036203,-0.25566544938316693,33.75437129039455,19.049655596108206,0.0,0.0,39.57622871308256,37.67280379255764,100.03200396680423,94.02240277676296,207.7027921777683,211.4879213953663,206.52713950446898,12784.625142302371,4,3,Mapping 1
2020000,37.00039317376997,-2.9990805358154837,1.1338969630732039,1.0954064039432958,31.756256950171547,18.733622914162197,0.0,0.0,39.042492924987684,39.37467343187488,99.77726750541342,93.8440872537894,196.95914691027826,203.21156006427123,198.44103752223666,12707.596216638165,4,3,Mapping 1
2030000,37.00039501227831,-2.9990813241594636,0.41559790369971733,0.7460884672390276,33.47079206045191,18.422529531105376,0.0,0.0,38.96526200289638,37.97994519929339,99.52029234122517,93.66420463885763,202.14425378821625,206.39443287666316,201.54525406388606,12848.612565724205,4,3,Mapping 1
