ts_micro,gps_lat,gps_lon,imu_yaw,imu_pitch,imu_roll,tps,brake_press_front,brake_press_rear,susp_travel_f,susp_travel_r,tire_temp_surface,tire_temp_carcass,wheel_speed_f,wheel_speed_r,gps_speed,rpm,gear,tcs_level,engine_map
0,37.0,-2.999,0.9285198508026042,-1.6582006485990783,0.3525540714563721,89.89979946416219,2.8224001611973444,0.42336002417960167,44.31143101695627,51.96853228096524,85.0,83.5,180.3764912515062,184.22162284269902,180.60943415950885,15532.574413491402,4,3,Mapping 1
10000,37.000002000398744,-2.9990000020007996,0.9613581623133276,0.8912069925461823,2.489517408392489,89.93221045527389,2.5733217547775844,0.38599826321663766,43.09600862370274,52.9390446402635,85.31721383654285,83.72204968557999,178.1555984090539,181.99479785998582,178.42277392598757,15608.05885351021,3,3,Mapping 1
20000,37.00000400078949,-2.99900000800319,0.7499129183216177,-0.05803200641519668,-1.5621095541712176,89.9583131644186,2.3238368284322832,0.34857552426484245,43.492880501180174,51.645296902124144,85.63437803522552,83.94406462465787,181.87058310777843,186.16373364522315,182.50630724797375,15610.16934338262,4,3,Mapping 1
30000,37.000006001164216,-2.9990000180071483,0.4401107032656179,-0.5999091184624037,1.5027782004895651,89.97810346802669,2.073984794486578,0.31109771917298673,42.86994531024838,52.280264772119736,85.95144296602939,84.16601007622057,183.7819335392398,187.06782228428872,183.38903817842944,15613.956095812846,4,3,Mapping 1
40000,37.000008001514935,-2.999000032012633,0.4128263071564397,-0.2508175117603908,4.4222964229170305,89.99157823972939,1.8238051232593548,0.2735707684889032,44.128289795785584,52.7541242966148,86.26835901461763,84.38785131023234,178.3170659841492,181.68451477532585,178.10810404608054,15633.085334315689,3,3,Mapping 1
50000,37.00001000183364,-2.999000050019589,0.27756044955483006,1.036770787041004,3.5853687950659143,89.99873535085268,1.5733373368279,0.23600060052418498,42.31531849873581,52.577861716256166,86.58507659017306,84.60955361312114,178.4769123816713,183.52390957751638,179.90776353055227,15496.1132484197,3,3,Mapping 1
60000,37.00001200211231,-2.999000072027944,0.40759705542163416,0.7312405173250732,7.07846911726584,89.99957367075355,1.3226210027844598,0.19839315041766897,40.601182615795864,53.726822336520634,86.90154613323222,84.83108229326255,181.75598410308183,186.95673403445056,183.26935461950612,15750.758097624708,4,3,Mapping 1
70000,37.00001400234296,-2.9990000980376097,0.4753625836642024,-0.12792345800550073,1.680933155358149,89.9940930669986,1.0716957279855264,0.16075435919782896,42.10617682842782,52.26099099599416,87.21771812351454,85.05240268646018,183.2706000839782,186.56551260612864,182.8822638129361,15580.025084611278,4,3,Mapping 1
80000,37.000016002517576,-2.9990001280484826,-1.404422165727381,-1.1391074640692798,2.140991257147348,89.98229440538495,0.8206011522949596,0.12309017284424392,43.01698916180773,50.52647763644004,87.53354308774529,85.2734801614217,183.2316778456505,187.6907370245516,183.98166662538387,15628.776049268503,4,3,Mapping 1
90000,37.00001800262815,-2.999000162060442,-0.7902471459442385,-1.0685445969116398,7.74771056968177,89.96417954980355,0.5693769423218896,0.08540654134828345,42.05099630302909,51.30706300062918,87.84897160747106,85.49428012522974,183.08514602517633,186.4981536831517,182.80906671680654,15532.946796043852,4,3,Mapping 1
100000,37.000020002666695,-2.999000200073352,-1.0289216244820427,0.7530301599246617,8.626313948972369,89.93975136194462,0.31806278515440256,0.04770941777316038,39.37416051894635,52.970132136887734,88.16395432686674,85.71476802880672,187.50240802067927,190.54593995474121,186.77312287271243,15628.738984316984,4,3,Mapping 1
110000,37.000022002625194,-2.9990002420870607,1.1071450076540088,-1.2777424256543939,7.193472299507539,89.90901370084563,0.06669838208994538,0.010004757313491807,39.83131942880981,52.394999470162375,88.47844196053236,85.93490937237266,185.8795161314854,190.85081185188557,187.0682910077097,15804.057814809026,4,3,Mapping 1
120000,37.00002400249564,-2.9990002881013997,1.6541001035836127,-0.11815448824430838,9.064836462905394,89.87197142228169,0.0,0.0,39.969316822635214,51.73772255249824,88.79238530127907,86.15466971089535,184.82854407779246,189.90979758140284,186.14227787716894,15495.945345048156,4,3,Mapping 1
130000,37.00002600227005,-2.999000338116185,-2.169047920412175,2.681072127379903,10.437231456648322,89.82863037799845,0.0,0.0,39.98145114143931,54.92417740468905,89.1057352279025,86.37401465953175,190.34159793911843,192.5855618814341,188.76125877858007,15481.585792162869,4,3,Mapping 1
140000,37.0000280019404,-2.9990003921312165,1.5648146118716608,0.4595608383700958,8.000447556770693,89.7789974147876,0.0,0.0,40.38096185717884,53.78454960434387,89.41844271294282,86.59290989905998,188.2676933912632,191.74869601728392,187.9373270252126,15504.706365081174,4,3,Mapping 1
150000,37.0000300014987,-2.999000450146278,0.08672137353152956,0.7422492039950045,8.89431267684671,89.72308037340537,0.0,0.0,39.65589899234707,52.886188914537826,89.73045883042968,86.81132118130078,185.38872043658415,189.54944563174033,185.77814920292104,15555.60776583555,4,3,Mapping 1
160000,37.00003200093695,-2.999000512161137,1.012719819158702,-1.0610352718663285,11.36566883834247,89.66088808733377,0.0,0.0,39.08437616941918,53.16547485996596,90.04173476361146,87.02921433452802,187.8461760625755,192.56241952644294,188.7274771899433,15534.295420848923,4,3,Mapping 1
170000,37.00003400024714,-2.999000578175546,0.5064671545848963,-1.2273016561724444,13.470865907654606,89.59243038138524,0.0,0.0,40.95180033650893,52.65334506527007,90.3522218126669,87.24655526886683,186.08803978178173,190.35890531707875,186.56418969860903,15479.631141170485,4,3,Mapping 1
180000,37.00003599942128,-2.9990006481892406,1.4403950535999206,0.7958220370380511,10.005403232560903,89.51771807015047,0.0,0.0,38.876433917729905,51.64972836933485,90.66187140239857,87.463309981679,189.59410854522702,194.61274736152603,190.72949484645227,15575.742491368692,4,3,Mapping 1
190000,37.00003799845136,-2.9990007222019406,0.20974243335749618,-0.2823519888948579,12.614101933924319,89.43676295629001,0.0,0.0,39.19788345895907,53.918072877648825,90.97063508990652,87.67944456293456,190.19838764483626,193.22116115475785,189.36196432187796,15733.584603772915,4,3,Mapping 1
200000,37.00003999732939,-2.9990008002133495,-1.3634544588129167,1.1736214815636739,13.192148795521234,89.34957782866977,0.0,0.0,38.87021898091887,53.72124564684289,91.27846457224096,87.89492520056868,188.84353687454956,193.44724688770032,189.57981858849502,15559.00123226383,4,3,Mapping 1
210000,37.00004199604736,-2.9990008822231555,-0.10567488377320998,0.14313323762451868,15.185003936958035,89.2561764603407,0.0,0.0,40.61221243545218,50.87390150899613,91.58531169403297,88.10971818582308,190.10763353841048,192.93472742671887,189.07383962164485,15560.603154244012,4,3,Mapping 1
220000,37.000043994597284,-2.9990009682310306,0.5156560461068058,3.5563627855501307,14.997885861206244,89.15657360636294,0.0,0.0,40.10647130941483,53.05774722338835,91.89112845510178,88.32378991857125,192.97794957283696,197.31767469643157,193.36528820551092,15600.557228279566,4,3,Mapping 1
230000,37.00004599297115,-2.99900105823663,-0.21596110153435863,-0.4723198153133484,14.5873402720772,89.05078500147496,0.0,0.0,40.88350361970465,53.14698922587255,92.19586701803769,88.53710691262638,190.09703883900693,195.00371003701892,191.0939282647227,15626.797877472147,4,3,Mapping 1
240000,37.00004799116098,-2.999001152239594,0.6577317221526706,0.3891315291894291,18.837586936184753,88.93882735760783,0.0,0.0,39.21480658374389,52.46603424266562,92.49947971575907,88.74963580103135,190.62013566880148,194.93955124861847,191.02731190088826,15694.875891697602,4,3,Mapping 1
250000,37.00004998915877,-2.9990012502395467,-0.06569738864044394,-0.7941456625874695,15.920706966652036,88.82071836124516,0.0,0.0,38.74698688296502,54.861409010880465,92.80191905904259,88.96134334132981,189.14408007108727,195.58780886305823,191.65880339349167,15576.832873210698,4,3,Mapping 1
260000,37.00005198695652,-2.999001352236095,-0.59550931911487,1.1320800106524298,17.07111031081278,88.6964766706291,0.0,0.0,39.55609904452977,54.72804000038526,93.10313774402532,89.17219642081773,193.78775070461,197.88376605293413,193.90483876154718,15547.59342494199,4,3,Mapping 1
270000,37.000053984546234,-2.999001458228832,-1.0859783833115408,0.5405123938742858,15.125599779451406,88.56612191281276,0.0,0.0,39.81750271323942,52.33571641731502,93.40308865967758,89.38216206177431,193.88117504577843,198.03193954808802,194.0462299842123,15443.49161920844,4,3,Mapping 1
280000,37.000055981919935,-2.9990015682173325,-0.39181538253334447,-0.8611898534143274,17.531743015847702,88.42967468055971,0.0,0.0,40.20909630777007,52.463115725617854,93.70172489524523,89.59120742667166,195.4163567585471,198.61508529872714,194.61382505558433,15611.183116599115,4,3,Mapping 1
290000,37.00005797906961,-2.9990016822011567,0.20457164970032737,-0.21728489411342772,20.638551597531077,88.2871565290908,0.0,0.0,38.31760836671228,52.31716087440897,93.99899974766045,89.79929982336232,193.2805545769393,199.13642852244723,195.12084160227246,15447.034620559363,4,3,Mapping 1
300000,37.00005997598728,-2.999001800179849,-1.9593918042559506,1.4718347735005264,20.891910716332813,88.13858997267891,0.0,0.0,40.47873086328367,52.01638562148849,94.29486672891959,90.00640671024371,200.16720337590073,203.11071025655332,199.01108196801226,15437.993684987136,4,3,Mapping 1
310000,37.000061972664945,-2.999001922152936,-0.7800764107150233,1.351709105372455,22.09084904167127,87.98399848109243,0.0,0.0,39.105761261710484,51.676039183658034,94.58927957342716,90.212495701399,195.17876273403738,198.38935798512506,194.38121728471424,15538.673360125667,4,3,Mapping 1
320000,37.000063969094626,-2.999002048119931,-1.9966920447743985,-1.314395639265646,22.631587511561385,87.82340647588745,0.0,0.0,39.3525843498825,53.071538406869415,94.88219224530457,90.41753457171319,195.85186975166403,198.6506559671971,194.63342213434424,15667.088763896445,4,3,Mapping 1
330000,37.00006596526833,-2.9990021780803295,-0.6170748539780397,-0.3659696437322058,26.339457753048183,87.65683932654991,0.0,0.0,41.17370953114142,54.49280930203555,95.17355894566268,90.62149126196387,194.44047949345864,198.5099483879411,194.4917488565645,15578.91927222457,4,3,Mapping 1
340000,37.00006796117806,-2.9990023120336113,1.1973147342872235,1.9213967562969676,21.299217408747197,87.48432334648774,0.0,0.0,37.816803154546804,54.04694655919286,95.46333411983683,90.82433388388579,198.81288857433606,201.90080616916478,197.8100934368899,15495.619640202116,4,3,Mapping 1
350000,37.000069956815835,-2.9990024499792405,-1.1861163817288356,-0.06717780069472265,20.183391935213866,87.30588578887412,0.0,0.0,40.322502027166955,53.2503541526818,95.75147246458339,91.02603072520837,197.82626248699603,203.41765114972083,199.2923005287752,15394.076459479376,4,3,Mapping 1
360000,37.00007195217368,-2.9990025919166645,0.7031597458613295,0.2834225145492587,21.944737665377136,87.12155484234205,0.0,0.0,40.31872863006748,50.01719905049977,96.03792893523645,91.22655025466551,197.96327016390126,201.34721840248432,197.25999138106857,15637.073520800206,4,3,Mapping 1
370000,37.0000739472436,-2.9990027378453163,2.84882512731232,1.126931916660077,23.258345584549193,86.9313596265314,0.0,0.0,39.18121502314924,50.52172244191399,96.32265875282381,91.42586112697667,195.5016054287444,200.32873904398232,196.25834105059303,15471.596403158479,4,3,Mapping 1
380000,37.00007594201761,-2.999002887764611,1.4535381312573497,-1.232161706298422,23.332904431276127,86.73533018748861,0.0,0.0,39.55299567908398,53.411229343992964,96.60561741114088,91.62393218779862,195.11316105076412,200.82189853029593,196.73762542644295,15440.392586989663,4,3,Mapping 1
390000,37.00007793648773,-2.9990030416739497,0.1335133803912118,-0.839697497429398,26.08079519960921,86.5334974929202,0.0,0.0,41.221046802151285,53.92607294651286,96.88676068378159,91.82073247864712,199.00791570722595,204.29156230917633,200.13280266969997,15516.856594322127,4,3,Mapping 1
400000,37.000079930645974,-2.9990031995727158,0.8584344557964826,-0.22369908321664078,29.006607999588983,86.32589342730074,0.0,0.0,41.96292354397103,52.81891330948293,97.16604463112498,92.01623124178748,200.7657319141341,204.93599149105273,200.76017975220685,15408.230664618122,4,3,Mapping 1
410000,37.00008192448438,-2.999003361460278,-1.3696828024367917,1.3046236198552499,30.1842544819483,86.11255078683581,0.0,0.0,41.06472586688446,51.91692984231691,97.44342560727658,92.2103979250936,199.97139726794018,204.97962446981478,200.79898950825293,15369.201649894449,4,3,Mapping 1
420000,37.00008391799495,-2.9990035273359874,-1.5734146534105542,1.1197653482522973,28.712909591012693,85.89350327428104,0.0,0.0,41.88587166776047,53.53100166425221,97.7188602669634,92.40320218687438,199.19140711670832,202.9609149007059,198.81755701256407,15370.030739932496,4,3,Mapping 1
430000,37.00008591116971,-2.9990036971991816,0.02869810907939372,0.8197663671870976,32.58181669014698,85.668785493618,0.0,0.0,39.30866807533245,52.88735087060252,97.99230557238134,92.59461390066694,199.2279204364683,205.23942301912575,201.0456115619436,15360.7751593531,4,3,Mapping 1
440000,37.000087904000694,-2.99900387104918,0.3986105634684114,-0.039159948670769135,28.177035246854164,85.43843294458753,0.0,0.0,38.41991593354049,53.225131869650866,98.2637187999941,92.78460315999587,199.10379231361438,205.44609895933192,201.244121698272,15304.800610657026,4,3,Mapping 1
450000,37.00008989647992,-2.9990040488852867,1.0944042842492405,1.2295697376796937,26.210688520016365,85.20248201708178,0.0,0.0,39.94737849152704,50.18392729615479,98.53305754728238,92.97314028309766,203.25951782121905,206.0934414968342,201.87426926910982,15284.207023544159,4,3,Mapping 1
460000,37.000091888599414,-2.9990042307067912,-0.5687621414013152,-0.05264523083831041,32.16337156254979,84.96096998539545,0.0,0.0,40.80485863610567,52.33553390911081,98.80027973944249,93.16019581760975,204.52258499145984,207.86186954651234,203.60250513900436,15495.64178062955,4,3,Mapping 1
470000,37.00009388035121,-2.999004416512965,0.19339548436164583,0.6779680123724077,26.956367215774527,84.71393500233745,0.0,0.0,38.14524989388309,53.71735814760085,99.06534363603303,93.34574054522312,201.66254142410548,206.97122630596652,202.7261409152022,15455.441513148011,4,3,Mapping 1
480000,37.00009587172733,-2.999004606303065,0.15911155655297451,1.0120389753946053,29.695251197251896,84.46141609320367,0.0,0.0,39.07354315067353,52.4197316491071,99.32820783756887,93.52974548629821,204.04949924161272,208.32950131685868,204.05255966625398,15296.176857759741,4,3,Mapping 1
490000,37.00009786271981,-2.999004800076331,-0.13139410557646702,1.7968200675106465,32.812253307380246,84.20345314961197,0.0,0.0,39.184604906987126,52.78893536154505,99.58883129206122,93.71218190444284,204.27812192555746,207.50610721684336,203.2420882062757,15456.978361852285,4,3,Mapping 1
500000,37.00009985332069,-2.999004997831989,-0.0724748761340012,0.043675415418173304,32.12901830320852,83.94008692320041,0.0,0.0,40.356563562387024,51.82439029514541,99.84717330150276,93.89302131105194,204.52149712942906,208.37968411745985,204.0937160797844,15388.534754219949,4,3,Mapping 1
510000,37.000101843521996,-2.9990051995692464,-0.8547045026395605,-0.2626102209464174,32.50852023651039,83.67135901918934,0.0,0.0,40.227619563749585,51.840346926131026,100.10319352829701,94.07223546980791,205.33495031025805,209.49583036271025,205.1828860969523,15314.474996546567,4,3,Mapping 1
520000,37.00010383331576,-2.999005405287296,0.27970740838496316,1.395075362788366,31.080294337947095,83.39731188980899,0.0,0.0,39.224839226495654,53.081989920335616,100.3568520016305,94.24979640114135,202.50991033551867,205.6446559277808,201.40705156289746,15213.30940946023,4,3,Mapping 1
530000,37.000105822694024,-2.9990056149853155,0.19504998019507824,1.4718525786825125,33.96643529346539,83.11798882759298,0.0,0.0,40.179811197690796,50.95380941701168,100.6081091237873,94.4256763866511,203.33361596098155,208.37714079474725,204.07923216534508,15358.864262846186,4,3,Mapping 1
540000,37.00010781164883,-2.999005828662465,-0.4400117659560351,-0.44337449239031573,36.53616146556515,82.83343395853927,0.0,0.0,38.855194815236665,50.799047673448065,100.85692567640436,94.59984797348305,204.20296447003892,208.47506331577011,204.17113577366135,15499.875412998515,4,3,Mapping 1
550000,37.00010980017222,-2.9990060463178896,0.6657742660235674,-1.005033731864265,35.104114051739494,82.54369223513929,0.0,0.0,39.57357518738436,51.03052442225647,101.10326282666703,94.77228397866692,204.20523927240805,208.53257993401294,204.22346482618056,15303.20484336904,4,3,Mapping 1
560000,37.00011178825623,-2.9990062679507186,1.027831588432296,1.3190344661661122,33.9335289342941,82.24880942927666,0.0,0.0,38.73521074730928,51.47320828832495,101.34708213344375,94.94295749341062,205.05620723521392,209.67294844581815,205.33624691105663,15389.817674830638,4,3,Mapping 1
570000,37.000113775892906,-2.999006493560065,0.6773762959754626,-1.5417273735953745,33.62308329619438,81.94883212499633,0.0,0.0,39.84976217220519,49.779677513664524,101.58834555335866,95.11184188735106,208.84978660970347,213.68134192247842,209.25763550784265,15256.781499030243,4,3,Mapping 1
580000,37.000115763074305,-2.9990067231450257,-1.0424433200607244,-1.5928014285416519,35.01744481705234,81.64380771114544,0.0,0.0,39.199510741142646,52.05982047260876,101.8270154468016,95.27891081276111,204.98782078878625,209.24912500164683,204.91316248349605,15357.93580187707,4,3,Mapping 1
590000,37.00011774979246,-2.999006956704682,0.09964576686199166,-0.1682951148087099,37.9339875893518,81.33378437388723,0.0,0.0,40.69037502006857,51.10250998870525,102.06305458387413,95.44413820871189,208.99019200494698,213.37989493222037,208.95424404338155,15238.330216471715,4,3,Mapping 1
600000,37.00011973603943,-2.9990071942381,-0.9114315628634524,0.10243971572915438,38.34334205531559,81.01881108908867,0.0,0.0,39.97381292927574,52.05745147792865,102.29642615027099,95.6074983051897,202.95103841625564,208.3457777939027,204.02054229720198,15000.219658286574,4,3,Mapping 1
610000,37.00012172180726,-2.9990074357443284,0.09655474629983324,-1.0599521662771993,36.55599205561936,80.69893761458357,0.0,0.0,39.773257248217504,49.02071759638943,102.52709375309578,95.76896562716705,207.91096255687611,211.47503409541423,207.0807799449817,15155.783984969445,4,3,Mapping 1
620000,37.000123707088015,-2.999007681222401,-0.9075366970199139,0.22186433837717967,34.23032829457817,80.37421448231217,0.0,0.0,41.768124368994606,51.93236592294738,102.75502142661014,95.9285149986271,207.41837156785672,212.86311978715378,208.4359404127862,15228.194656893116,4,3,Mapping 1
630000,37.00012569187374,-2.9990079306713358,1.2771633373547857,0.2664700886364802,39.98060753075821,80.04469299033826,0.0,0.0,40.383288177018635,52.345833542020785,102.9801736379154,96.08612154654078,209.40957201726002,214.09523321937994,209.6383224833832,15310.05016155921,4,3,Mapping 1
640000,37.000127676156495,-2.999008184090134,0.7833314690198421,-0.48038789405427934,37.827718845694655,79.71042519474543,0.0,0.0,39.63184591636807,51.38063287295082,103.20251529256598,96.24176070479618,209.9288798612801,214.71316945560852,210.23927762769125,15173.06704212645,4,3,Mapping 1
650000,37.00012965992834,-2.9990084414777822,1.1529893053423892,2.033464179167857,41.4775507862798,79.3714639014135,0.0,0.0,39.41626465291392,50.90431176845061,103.42201174011328,96.3954082180793,211.1272647811015,215.2388864069037,210.74991325458112,15177.8400914152,4,3,Mapping 1
660000,37.00013164318134,-2.99900870283325,1.0517220901954962,0.42976121000730444,39.05716403081985,79.02786265767661,0.0,0.0,38.81882739406875,51.67077583087217,103.63862877957969,96.54704014570578,206.59513133052644,213.259332994679,208.80755590283064,15102.38764384562,4,3,Mapping 1
670000,37.00013362590756,-2.999008968155492,-0.27059971157366486,1.1284890365217846,39.05713095535559,78.67967574386394,0.0,0.0,39.93411611454521,52.00736340751371,103.85233266486145,96.69663286540302,209.84806161704648,213.37572660644727,208.9174286784492,15303.279681027003,4,3,Mapping 1
680000,37.00013560809906,-2.9990092374434463,-0.4256097435274256,-1.4562129886693227,41.79634205665041,78.32695816472491,0.0,0.0,40.307613542376636,51.188318200788395,104.06309011005965,96.84416307704176,211.17325683610377,216.41647693185845,211.89049593860975,15283.147278690229,4,3,Mapping 1
690000,37.000137589747915,-2.999009510696035,1.741723828700153,-1.4648418124505458,46.65590870847768,77.96976564073977,0.0,0.0,38.08562400749907,51.191594309127275,104.2708682947386,96.98960780631703,211.40127150118138,214.61193725551303,210.11958062181856,15051.166193175484,4,3,Mapping 1
700000,37.00013957084619,-2.9990097879121644,-0.16511965017241503,0.46006261064892634,43.88245669427657,77.60815459931715,0.0,0.0,38.63601647302157,52.17857279402972,104.47563486911064,97.13294440837744,207.77569738963814,212.7306991071807,208.27364314390118,14952.685117897263,4,3,Mapping 1
710000,37.00014155138595,-2.999010069090726,-1.354580642471999,1.854857689420273,43.094026108534116,77.24218216588004,0.0,0.0,39.48389721073313,51.209593418822784,104.67735795914655,97.27415057140259,208.82538694528506,213.35053075835552,208.87639830662755,14908.967478433417,4,3,Mapping 1
720000,37.000143531359285,-2.9990103542305944,1.007466733665825,-1.0099357789723815,43.96971665030583,76.87190615484128,0.0,0.0,38.901819284106445,49.574122098247756,104.87600617161085,97.41320432012759,211.62291675201223,214.11129604026132,209.61710530257415,15135.21709883571,4,3,Mapping 1
730000,37.00014551075826,-2.9990106433306285,0.14377566826372068,0.14337664650128207,40.17337519487546,76.49738506047048,0.0,0.0,40.04325748602594,51.566118914001684,105.0715485990212,97.55008401931484,212.4633690797772,217.32419449437222,212.75839924654144,15073.41749492226,4,3,Mapping 1
740000,37.000147489574964,-2.999010936389671,1.5059441239789821,-1.2350962446963178,41.84761987246291,76.11867804765329,0.0,0.0,40.182152042906885,50.10001431969115,105.26395482453091,97.68476837717164,213.66734031604778,216.91329970442166,212.3519791913906,14966.567667891293,4,3,Mapping 1
750000,37.00014946780147,-2.99901123340655,0.2429696779808486,-0.7186225992146529,39.48017110872077,75.7358449425449,0.0,0.0,39.877692632067,50.18045199711176,105.45319492673411,97.81723644871389,213.78781126132938,218.34162336661473,213.74608259091013,15056.617968552362,4,3,Mapping 1
760000,37.00015144542987,-2.999011534380076,-0.020001487346713052,0.19311131880820975,48.364474654816796,75.34894622311899,0.0,0.0,40.55017432138416,50.176669672047424,105.63923948439252,97.94746763907476,212.24341364752487,216.36148872638324,211.80347788235497,14890.92536122547,4,3,Mapping 1
770000,37.00015342245224,-2.9990118393090457,1.5261208087746898,-0.49261121336276187,48.355103136694794,74.95804300961376,0.0,0.0,39.415087722432084,50.96047646957862,105.82205958108331,98.07544170675831,213.33737252635072,217.85645487918075,213.26277471188672,15077.8140413053,4,3,Mapping 1
780000,37.000155398860684,-2.9990121481922385,-1.5384663450369873,-1.3055239031696757,46.47441603391755,74.56319705487647,0.0,0.0,39.95409513953946,51.66149231863153,106.00162680976715,98.201138766837,215.38861715488193,219.10355919577975,214.47938368356213,14944.296894165162,4,3,Mapping 1
790000,37.00015737464728,-2.9990124610284177,-0.5853623046030073,-1.3279176906145855,46.34023941617514,74.16447073460803,0.0,0.0,38.99668641516465,49.857315589034286,106.17791327727579,98.32453929409306,212.1570651165274,217.48086462118422,212.8867681642008,14858.432922363192,4,3,Mapping 1
800000,37.00015934980412,-2.9990127778163327,-0.8873629718552081,-1.8860080994642394,43.3407815341855,73.76192703750922,0.0,0.0,40.284619707292514,51.48364751761433,106.35089160871847,98.44562412610293,213.634645354711,219.32830215332422,214.6909770490644,14913.775611554125,4,3,Mapping 1
810000,37.000161324323315,-2.9990130985547143,-2.1950797785732843,0.4765838032145902,46.37197697347304,73.35562955533007,0.0,0.0,40.07590815548633,49.83571422383659,106.52053495180655,98.56437446626458,212.04101375319433,217.31921485211834,212.72020404075718,14894.077645193902,4,3,Mapping 1
820000,37.00016329819695,-2.9990134232422805,0.8731764280166031,0.5975810254311384,50.754581115217555,72.94564247282398,0.0,0.0,38.80146501155482,50.99129643828777,106.68681698109535,98.68077188676673,213.6856797883965,218.20105335329654,213.57919947662242,14954.33153575325,4,3,Mapping 1
830000,37.00016527141713,-2.9990137518777313,-0.557418413982939,0.5925534365473859,47.78439818110604,72.53203055760807,0.0,0.0,39.84494062479524,49.70483918305573,106.849711902143,98.79479833150009,213.5616105536643,218.4285206415448,213.79766325543213,15017.880980214615,4,3,Mapping 1
840000,37.000167243975966,-2.9990140844597515,0.9053680416465748,-0.9091757978652422,46.736534869863945,72.11485914993165,0.0,0.0,39.96217812673297,48.930548173528955,107.00919445558533,98.90643611890974,213.1742141868514,217.02509379200103,212.41983183775844,14996.007760138542,4,3,Mapping 1
850000,37.000169215865554,-2.999014420987011,0.389086491234604,1.005951290574182,44.68638650647027,71.69419415235407,0.0,0.0,40.28101190322012,51.260937898237565,107.16523992112613,99.01566794478829,217.43963692614486,220.71818697110058,216.03032883537298,14883.730917861349,4,3,Mapping 1
860000,37.00017118707801,-2.999014761458162,0.6071424666276842,0.7067786675108583,51.292224522634925,71.27010201933368,0.0,0.0,40.31811850657115,48.66613560508634,107.31782412144241,99.12247688500969,213.31102544165958,219.01274608411236,214.35691391390242,14832.085015536517,4,3,Mapping 1
870000,37.00017315760544,-2.9990151058718433,-0.4553994808406475,0.007294406644997998,48.71286393515296,70.84264974672986,0.0,0.0,39.27881406105632,48.51372087117716,107.46692342600376,99.22684639820264,214.76343602085396,220.2406198037938,215.5544657190614,14776.841633096603,4,3,Mapping 1
880000,37.00017512743997,-2.999015454226676,-0.7642481439850484,-0.15682874325924895,45.6532647538462,70.41190486121924,0.0,0.0,40.763644657932716,47.82634067669952,107.61251475480539,99.32876032836377,215.16281423334868,221.43492490979935,216.71911692550046,14639.674205202078,4,3,Mapping 1
890000,37.0001770965737,-2.9990158065212658,0.08976087521972068,-0.6491154690359697,47.62413491628814,69.97793540962824,0.0,0.0,40.523055678839256,50.26285460112801,107.75457558201418,99.42820290740993,219.07485055207422,221.5966812151925,216.8731832832826,14797.19605174843,4,3,Mapping 1
900000,37.00017906499877,-2.9990161627542036,0.9191681833081691,0.19216183392872419,47.21570863224374,69.54080994818341,0.0,0.0,39.27542040979453,50.41160928907001,107.89308393952727,99.52515875766909,217.85907480509715,222.26980847975113,217.5277045211892,14696.531251646245,4,3,Mapping 1
910000,37.00018103270729,-2.9990165229240637,-0.05038200548374193,1.617247805317998,49.797553473549144,69.1005975316812,0.0,0.0,38.85730295498563,49.193249347689665,108.02801842044231,99.61961289430961,216.72975134114324,220.92878380023933,216.21105850368886,14885.857773886666,4,3,Mapping 1
920000,37.00018299969139,-2.9990168870294047,-0.7019363226322926,1.1378566156165137,50.758065940592246,68.65736770257912,0.0,0.0,39.35184835470576,47.74760040447779,108.15935818243936,99.71155072770756,214.32091425264827,220.47912286587177,215.76677646781468,14726.222628340574,4,3,Mapping 1
930000,37.00018496594319,-2.99901725506877,-1.1990180913983586,-0.2562104236290778,49.611348363804424,68.21119048000976,0.0,0.0,38.52835205236935,48.63545931026703,108.28708295107339,99.80095806575137,216.65222888885978,221.38954172902055,216.65349629990465,14803.156218553147,4,3,Mapping 1
940000,37.00018693145484,-2.9990176270406863,0.204163015323827,0.5386214617743597,52.43827384352342,67.76213634871954,0.0,0.0,40.20800651207418,48.249807918735804,108.41117302297711,99.88782111608398,214.1759663161686,218.30627630320566,213.63200796884732,14662.234162940289,4,3,Mapping 1
950000,37.00018889621847,-2.9990180029436657,-0.5540675349285377,-1.101430049521758,51.3001448726869,67.31027624793381,0.0,0.0,41.18355992307582,47.43158665250276,108.53160926897364,99.97212648828155,214.02951957792274,218.99352754800435,214.30034988551165,14624.86280343913,4,3,Mapping 1
960000,37.000190860226205,-2.9990183827762036,-0.0717405873897399,0.730067177405201,53.51744567216082,66.85568156015046,0.0,0.0,41.42154605792595,47.882244748844,108.64837313709843,100.05386119596889,215.88613558111572,219.4381056503074,214.7311977946487,14734.70628915321,4,3,Mapping 1
970000,37.000192823470194,-2.99901876653678,-0.23877878224865942,-0.8308571426653624,50.92059448600457,66.39842409986304,0.0,0.0,38.91065858232378,48.785420471269646,108.76144665553,100.133012658871,218.04989201705155,220.28756836224562,215.55822099364502,14683.700360959623,4,3,Mapping 1
980000,37.00019478594258,-2.9990191542238596,-0.4444309746845453,0.6902555612776734,57.95963854196615,65.93857610221596,0.0,0.0,40.78680426038026,47.58254639325967,108.87081243542902,100.20956870480032,217.48767591154348,223.32120131590224,218.52244835013332,14669.763770458456,4,3,Mapping 1
990000,37.00019674763551,-2.9990195458358904,0.29380356075951225,2.969072190474402,50.96582063515984,65.4762102115933,0.0,0.0,40.084500877875186,48.38697592546975,108.97645367368534,100.28351757157974,214.97192429100465,220.825521934699,216.07616776717643,14609.670482928906,4,3,Mapping 1
1000000,37.00019870854114,-2.999019941371306,0.554504084144107,-0.5700124323271293,50.505719158747574,65.01139947014262,0.0,0.0,37.60405965389994,46.22595769428719,109.07835415557241,100.3548479089007,216.33540766991027,222.0694004547355,217.28904154083708,14679.394987595497,4,3,Mapping 1
1010000,37.000200668651615,-2.9990203408285234,1.9652789446507835,2.922803309238031,50.469095065888,64.5442173062363,0.0,0.0,39.66760285134773,49.58802451904409,109.17649825730886,100.4235487801162,222.56926598806726,225.6579829121023,220.79605380726633,14646.245979156127,4,3,Mapping 1
1020000,37.0002026279591,-2.9990207442059442,0.7579677146845119,0.4906354877829783,52.30083463364995,64.07473752287164,0.0,0.0,39.5563169368067,47.42353592604718,109.27087094852662,100.48960966396864,218.76551110964246,222.4278586688042,217.63126557551973,14345.307486781612,4,3,Mapping 1
1030000,37.000204586455745,-2.999021151501954,1.5936823294741405,-0.7496256332619503,49.47633496648813,63.60303428601183,0.0,0.0,41.21081789597471,48.590855741176384,109.36145779464532,100.55302045625172,219.80991081665672,224.81125834556727,219.9589636083667,14518.376037318143,4,3,Mapping 1
1040000,37.00020654413371,-2.999021562714923,-0.8186003714017367,-0.7954561667344151,53.68886459779145,63.12918211286963,0.0,0.0,39.129045491020946,47.814521444010566,109.44824495915265,100.61377147140685,216.79037824921951,221.53661327979222,216.7507565746245,14626.641362121545,4,3,Mapping 1
1050000,37.00020850098518,-2.999021977843206,-1.6009447707270237,2.364955607848391,49.465074713608686,62.65325586013553,0.0,0.0,40.56306434719227,47.93314928958061,109.53121920579014,100.6718534440531,217.44367504169193,223.16028078458797,218.33507561352897,14404.176735283241,4,3,Mapping 1
1060000,37.000210457002304,-2.9990223968851417,-0.014430255720158127,0.49298868470309865,53.76655122953161,62.175330712152316,0.0,0.0,39.89291166501301,46.3030817489537,109.61036790064416,100.72725753045091,217.9332804561448,221.7670710402398,216.9677445312095,14317.773646400006,4,3,Mapping 1
1070000,37.00021241217727,-2.999022819839053,0.8580272441490993,-0.5661528561658385,50.899790342919175,61.69548216903774,0.0,0.0,38.55419099671404,46.57853744962084,109.68567901414175,100.77997530989923,217.89074713395732,223.1387022756218,218.3054202708257,14453.941102426466,4,3,Mapping 1
1080000,37.00021436650224,-2.999023246703248,0.7011617181594295,-0.20346061104290386,52.99032365573214,61.21378603475752,0.0,0.0,39.44781469144196,46.50490379290968,109.75714112295105,100.82999878606574,220.48655184747216,225.66598597994394,220.7736420716365,14500.625027280033,4,3,Mapping 1
1090000,37.000216319969404,-2.9990236774760173,1.2113815723265748,0.4307757777089527,55.10411630419348,60.730318405150115,0.0,0.0,41.531631460055706,47.171411107070796,109.82474341178579,100.87732038825006,216.39845546170815,220.52690059669723,215.74174861247258,14383.164601374909,4,3,Mapping 1
1100000,37.00021827257095,-2.9990241121556385,-2.5365453589852063,-0.008720675213032339,58.63672185300337,60.24515565590562,0.0,0.0,39.82662945129895,48.37518671168549,109.88847567511394,100.92193297257975,219.95546127562775,225.05001383302752,220.16240836727403,14539.100852206602,4,3,Mapping 1
1110000,37.00022022429905,-2.999024550740372,1.2529768948842077,0.3458991462741695,51.997721259731314,59.75837443050025,0.0,0.0,40.90586705948358,47.38492972597142,109.94832831876982,100.96382982313888,219.60169840213877,224.74528563725283,219.8599965146963,14574.697182407095,4,3,Mapping 1
1120000,37.0002221751459,-2.999024993228462,0.3354626264296404,1.7736108966542765,53.96960829638095,59.27005162808859,0.0,0.0,40.85105428772518,45.953669953502015,110.00429236146988,101.00300465302891,218.29250969744965,223.1355365923194,218.28096786695824,14178.294311287054,4,3,Mapping 1
1130000,37.00022412510369,-2.9990254396181384,-1.5440133451250129,-1.1279706645626761,52.93067341015788,58.78026439135557,0.0,0.0,39.551736148781764,46.843386853532515,110.05635943623135,101.03945160536193,217.51725064731374,221.47841436719665,216.65565938919323,14312.81114438106,4,3,Mapping 1
1140000,37.00022607416463,-2.9990258899076148,0.7235288467288058,0.6446303277639107,52.7378072966055,58.289090094329765,0.0,0.0,38.716577523840016,46.577184184005795,110.10452179169413,101.07316525418588,221.573495822716,224.66064234983241,219.76429388213836,14103.379461578752,4,3,Mapping 1
1150000,37.000228022320904,-2.999026344095089,0.1694825768329633,-0.07289760468213104,53.13835238542055,57.7966063301603,0.0,0.0,38.848181670943035,46.20845616513331,110.14877229334529,101.1041406053417,219.26706589081817,223.50243347182717,218.62705025122486,14377.96516154279,4,3,Mapping 1
1160000,37.000229969564735,-2.999026802178744,0.38122929857805077,-0.4990453460587155,56.298562685495305,57.30289089885907,0.0,0.0,41.45166704252408,46.445161653952105,110.1891044246461,101.13237309725227,221.0956131246246,225.12623168943097,220.21111950214316,14224.130057617922,4,3,Mapping 1
1170000,37.00023191588831,-2.999027264156747,0.9991091503153616,1.0721741677899421,53.747815305274564,56.80802179501031,0.0,0.0,40.15173741191821,47.12531628034164,110.22551228806151,101.15785860164306,219.62324144506536,224.75421487303177,219.8429239519453,14224.740323155573,4,3,Mapping 1
1180000,37.00023386128385,-2.9990277300272483,0.43027536843071573,-1.4614256346847099,59.2874047297237,56.312077195449426,0.0,0.0,38.26617886902042,45.54248902060745,110.25799060599181,101.18059342419426,222.26057138792905,228.03733947216855,223.04994275222873,14367.292281747734,4,3,Mapping 1
1190000,37.00023580574358,-2.9990281997883845,-1.4728250984696853,-2.366433358148267,55.67693489932345,55.815135446913004,0.0,0.0,40.83396052778057,45.81713608571659,110.28653472160636,101.20057430512445,220.12599513565763,224.31890752104974,219.40854429962414,14099.76576958821,4,3,Mapping 1
1200000,37.0002377492597,-2.999028673438276,-0.143026269782909,0.2245330147621503,52.87248799672614,55.31727505366204,0.0,0.0,38.21314873232214,47.04557581362523,110.31114059957922,101.21779841970545,218.06137530180538,222.75522616550248,217.874829974083,14054.73484509451,4,3,Mapping 1
1210000,37.00023969182445,-2.9990291509750264,-1.6176451708508919,-0.13817973987289622,54.19796025450859,54.81857466508016,0.0,0.0,39.17387575642004,46.43267770637203,110.33180482672671,101.2322633787087,218.74155208568513,225.24795867889117,220.30863899267536,13964.995426420606,4,3,Mapping 1
1220000,37.00024163343004,-2.999029632396726,0.6490618805588924,-1.352847250479958,53.35786016752228,54.319113063249134,0.0,0.0,40.08129437257354,47.14293442626534,110.34852461254648,101.24396722878254,220.05048028510734,225.35807876288342,220.4120327480179,14299.817275168212,4,3,Mapping 1
1230000,37.000243574068726,-2.9990301177014476,1.3979702415840396,-1.7105524961850338,56.58319244314208,53.81896915050319,0.0,0.0,42.520419079902325,47.19964354769728,110.36129778965848,101.25290845276093,222.61374326998384,227.7080295331834,222.70605161393445,14256.58066176235,4,3,Mapping 1
1240000,37.000245513732715,-2.999030606887249,-1.2414519625523257,1.930633377668805,51.71831087799343,53.31822193696448,0.0,0.0,40.81600107835354,44.30310326720418,110.37012281414724,101.25908596990307,221.1014601154745,226.65029807746032,221.66721899446475,14103.340070192402,4,3,Mapping 1
1250000,37.00024745241426,-2.9990310999521737,-0.6714637605324103,0.46301484795967973,52.31809452390121,52.81695052806147,0.0,0.0,39.51761026538335,45.851687893222696,110.37499876580583,101.26249913606408,222.34893716846474,225.67979929681908,220.71374014358835,13985.153474385646,4,3,Mapping 1
1260000,37.000249390105594,-2.9990315968942474,-0.8823693211221685,0.019645723071779902,53.812343528720376,52.31523411203223,0.0,0.0,40.02831429601023,44.95509019485459,110.37592534828121,101.26314774379685,223.4581228147906,227.94351874805886,222.92328633968904,14176.019094976353,4,3,Mapping 1
1270000,37.000251326798974,-2.9990320977114826,-0.45390527193833696,2.1952449089594404,56.34807994234294,51.81315194741477,0.0,0.0,40.91970921660227,44.163911321464276,110.37290288912104,101.26103202238473,219.10359817753385,222.51443706125235,217.60951851394796,14347.993635884495,4,3,Mapping 1
1280000,37.000253262486645,-2.9990326024018743,0.412423158198868,1.022062493065567,57.42637169703386,51.310783350526144,0.0,0.0,41.421863290832995,44.472963286006404,110.36593233972197,101.25615263780537,218.97963312289883,223.62527091863257,218.69158867805564,14028.862571610965,4,3,Mapping 1
1290000,37.00025519716086,-2.9990331109634036,-0.44306912210115895,1.7692767705402057,57.690717986940065,50.80820768293248,0.0,0.0,39.75236050324106,44.86087318736367,110.35501527517927,101.24851069262549,218.18442423209137,223.02027284382356,218.09567255747575,13912.037918004216,4,3,Mapping 1
1300000,37.00025713081388,-2.9990336233940353,0.652530172699025,-1.1799539281165214,55.94994160677887,50.30550433891185,0.0,0.0,39.7813830663399,44.76658018261216,110.3401538940381,101.23810772582667,218.1143934609198,224.09320478585516,219.1406266241494,14136.389448114545,4,3,Mapping 1
1310000,37.00025906343796,-2.999034139691719,1.065379770075975,-1.2173925901246845,54.676593166765436,49.80275273291198,0.0,0.0,39.16995149441081,44.353661858351366,110.32135101794613,101.22494571256229,217.14494074997515,222.04351493232727,217.13198933360118,13878.861280702533,4,3,Mapping 1
1320000,37.00026099502537,-2.9990346598543884,1.101759261329277,0.6170752351160163,56.374993825285145,49.300032287004775,0.0,0.0,40.66515868061162,44.84636506228249,110.2986100912078,101.20902706384547,221.12891009937172,226.12050982237693,221.11447803956128,13935.333840147465,4,3,Mapping 1
1330000,37.00026292556839,-2.999035183879962,-1.1181810953696476,0.41449921809578877,52.43145616166508,48.79742241833963,0.0,0.0,41.025971992761924,47.206130681557234,110.27193518024023,101.19035462616816,217.8528533557288,224.32277289944906,219.35225089418682,13688.025917736313,4,3,Mapping 1
1340000,37.000264855059285,-2.999035711766343,1.385928944472723,1.2496620356598749,50.95721369641531,48.295002526597514,0.0,0.0,38.061315082870244,42.93378191030625,110.2413309729308,101.16893168105156,216.21646563775167,221.71837083651107,216.801316967684,13901.472768818363,4,3,Mapping 1
1350000,37.00026678349034,-2.999036243511419,1.4660722848762389,-1.6307888753126598,55.43724126674553,47.79285198144785,0.0,0.0,39.60319398613338,45.695747313610624,110.20680277789661,101.14476194452763,217.29991120399902,222.59242046882585,217.65172628221947,13783.885357148894,4,3,Mapping 1
1360000,37.00026871085383,-2.999036779113062,1.5526799312371686,0.7035974159716445,52.46142751772314,47.291050110010126,0.0,0.0,38.78655397822894,44.43983570865744,110.16835652364584,101.11784956655208,220.69892924541927,225.24753268230944,220.24359813273372,14017.525289667898,4,3,Mapping 1
1370000,37.000270637142044,-2.999037318569129,-0.15781481971769576,0.9892686334202945,54.24238380247958,46.789676184322076,0.0,0.0,40.15090695692602,43.92005638970717,110.12599875764116,101.08819913034881,221.73055108621782,226.25079965912045,221.2202511480146,13773.972683371154,4,3,Mapping 1
1380000,37.000272562347284,-2.999037861877461,-0.7518424733102778,0.9361720668113871,54.50387465132967,46.28880940881689,0.0,0.0,38.76205377554747,42.23955180567383,110.07973664526547,101.05581565168583,222.80913722766567,228.54455907167207,223.4586404158083,13929.53333917016,4,3,Mapping 1
1390000,37.000274486461834,-2.999038409035884,-0.9842411914800846,-0.4066943812075223,54.643910649474364,45.78852890781079,0.0,0.0,38.67985894944724,44.920469094136344,110.02957796868989,101.02070457808293,225.73581525676687,230.3380844976726,225.2078496819185,13821.04727950643,5,3,Mapping 1
1400000,37.000276409478,-2.999038960042209,-1.1017798865748192,0.5186151715960765,55.89775155346782,45.288913713003446,0.0,0.0,41.12351928071095,42.616815245274715,109.97553112564442,100.9828717879511,219.91727472037462,225.13635151320392,220.11766866758305,13824.092994513654,4,3,Mapping 1
1410000,37.00027833138809,-2.99903951489423,0.011690406664868707,-0.7756570919653527,55.55228165838417,44.790042750992896,0.0,0.0,39.83440586464681,44.78590245461985,109.91760512809122,100.94232358966386,214.0957082515469,222.16907646752085,217.21229196488224,13843.8238180382,4,3,Mapping 1
1420000,37.0002802521844,-2.999040073589728,0.8478518564904252,-0.29294608184713095,54.13558125609779,44.29199483080718,0.0,0.0,39.94009383789993,45.599729835155195,109.8558096008011,100.89906672056077,214.302975615878,219.730173887767,214.82360279981913,13766.33446190315,4,3,Mapping 1
1430000,37.00028217185926,-2.999040636126467,1.3065584409873443,-1.0429363392979336,52.710509954693514,43.79484863145449,0.0,0.0,40.431685126985,42.476165962697706,109.79015477983287,100.85310834588302,220.697532198961,224.53134393770583,219.51327057242028,13687.01350846956,4,3,Mapping 1
1440000,37.00028409040498,-2.999041202502195,-0.48555711636235127,-0.7586657293387521,53.650557501368866,43.29868268949388,0.0,0.0,40.97081896198896,44.82809712285618,109.72065151091647,100.80445605764153,215.40921678456544,222.20631899683593,217.2359602268457,13650.744681906675,4,3,Mapping 1
1450000,37.000286007813884,-2.9990417727146466,-0.038688267080288836,-0.24096232837912,52.07466391167699,42.80357538662845,0.0,0.0,39.58140716742482,43.586154442072825,109.64731124773948,100.75311787341764,218.03176560066998,222.89909919762468,217.90898347602376,13763.04100346805,4,3,Mapping 1
1460000,37.0002879240783,-2.9990423467615392,-0.10418755340144568,-0.49093674763787193,52.697863466290826,42.309604937323044,0.0,0.0,39.60368539633279,41.36771635562332,109.57014605013781,100.69910223509646,219.11031788290558,222.36975562478264,217.38724008210087,13502.210344839646,4,3,Mapping 1
1470000,37.00028983919056,-2.9990429246405768,-0.635280249865139,-0.7587914430556403,58.14231772797998,41.8168493764483,0.0,0.0,39.607933472825884,42.15855302034212,109.48916858219053,100.64241800753337,217.36567638652303,223.200892452444,218.1954879586721,13840.490413186266,4,3,Mapping 1
1480000,37.000291753142996,-2.999043506349446,0.7357495297606192,-1.2995970521782207,53.07724204424943,41.32538654695317,0.0,0.0,41.08150889532913,43.443303952029176,109.40439211021925,100.58307447715347,220.47095686156132,225.5305466146849,220.4685878379261,13666.197634659435,4,3,Mapping 1
1490000,37.000293665927956,-2.9990440918858194,0.36284824662322557,1.961095788459011,53.41191713559837,40.835294087567576,0.0,0.0,39.931864870402535,43.56824206314648,109.3158305006924,100.52108135048468,217.07956062153082,223.5254530480078,218.50422593599853,13599.67227248382,4,3,Mapping 1
1500000,37.000295577537784,-2.999044681247354,0.1418231751196062,-0.5005629432242592,50.89073478161551,40.346649420537624,0.0,0.0,39.70890168809266,41.488638628508525,109.22349821803465,100.45644875262425,219.49173395997883,222.72789500669793,217.72032747477806,13640.474458044248,4,3,Mapping 1
1510000,37.00029748796483,-2.9990452744316913,0.35830543919592484,0.3299655735312294,54.123849542011946,39.859529739394674,0.0,0.0,40.3908964318682,43.00361104153257,109.12741032234192,100.38918722563935,215.71782987683926,220.77564339230784,215.80774901009545,13534.95141167593,4,3,Mapping 1
1520000,37.000299397201445,-2.9990458714364574,0.6154512479574837,-1.758971956244352,53.378026272731766,39.37401199676083,0.0,0.0,41.831254199778726,43.698358359700286,109.02758246700223,100.31930772690157,214.41514191228632,219.30413948376645,214.36516605779485,13557.155665265616,4,3,Mapping 1
1530000,37.000301305239994,-2.999046472259264,0.6054370191303882,1.3576491329094167,53.15777308100063,38.8901728921923,0.0,0.0,40.074283144261905,43.77661009785776,108.92403089622294,100.24682162735606,218.0379475826156,221.56557087499064,216.57143361581004,13442.434625782216,4,3,Mapping 1
1540000,37.000303212072836,-2.999047076897706,-0.8384899561218573,0.1671606504868463,51.81028186692871,38.40808886006283,0.0,0.0,39.730552775321314,42.268781804746794,108.81677244246445,100.17174070972511,217.97863502059406,222.274433240516,217.26007080630646,13573.832147783505,4,3,Mapping 1
1550000,37.00030511769235,-2.9990476853493644,0.8963285487429461,-0.44387454292512724,53.19819414385221,37.92783605748899,0.0,0.0,41.9429985179903,43.02403599005437,108.70582452378122,100.09407716664685,219.75483003390943,225.81983830161602,220.7211790652097,13509.267859188441,4,3,Mapping 1
1560000,37.0003070220909,-2.9990482976118042,0.25536611768055933,-0.4351410706639482,53.414421703623596,37.449490352299264,0.0,0.0,41.32980164225124,43.562333456924144,108.59120514107006,100.01384359874905,216.5545467769854,222.28067476710925,217.25767726865786,13516.72651081248,4,3,Mapping 1
1570000,37.000308925260875,-2.9990489136825755,-0.43461619498026516,0.8694098577660546,51.170450164196936,36.97312731104888,0.0,0.0,41.184825006498016,43.24708144142844,108.47293287522652,99.93105301265857,219.30994869511747,223.83087636975108,218.76857162240856,13627.239077083343,4,3,Mapping 1
1580000,37.00031082719465,-2.999049533559213,0.2342296914461701,-2.9530954287447893,50.1002344272603,36.49882218708213,0.0,0.0,39.4993132457825,43.19120165274555,108.35102688420953,99.84571881894666,214.93183480381236,220.59805555375388,215.60465181765693,13379.532048714842,4,3,Mapping 1
1590000,37.000312727884626,-2.9990501572392363,0.34447747672505324,-0.8241933387090763,51.835857160262314,36.026649908644345,0.0,0.0,39.40017221590603,42.31883659736262,108.2255069000149,99.75785483001043,211.7619796761699,218.98888613808646,214.0277235071898,13428.177621305835,4,3,Mapping 1
1600000,37.00031462732319,-2.9990507847201493,1.0817836671641239,-0.11908383760119232,47.94781448310873,35.556685067045024,0.0,0.0,38.16584554663319,42.01681927636642,108.09639322555829,99.6674752578908,214.19895983482402,219.22673473519367,214.2559956364285,13257.125846447392,4,3,Mapping 1
1610000,37.00031652550274,-2.9990514159994417,-1.0461556284851803,-0.1306110812312659,48.02163424799819,35.089001904874316,0.0,0.0,40.96491688785425,42.289913954729776,107.96370673146765,99.57459471202736,212.93101232041383,219.4998023593272,214.51867864127675,13458.563296426006,4,3,Mapping 1
1620000,37.00031842241568,-2.999052051074587,1.3249843536541932,2.5053119636784147,49.04463079036032,34.62367430427461,0.0,0.0,40.076997150371604,41.16096614185306,107.82746885278642,99.47922819695049,221.78122614308802,225.11616608031417,220.0032896293286,13383.198508021484,4,3,Mapping 1
1630000,37.00032031805442,-2.999052689943044,0.023166356309827475,-0.33759347044813187,45.354429351415455,34.160775775268974,0.0,0.0,38.19911212296847,42.94425014813017,107.68770158558716,99.38139110991102,214.0642015904882,218.84988514838238,213.8751491784907,13368.165670094479,4,3,Mapping 1
1640000,37.00032221241138,-2.9990533326022555,-0.5061532507485986,0.9902269920616542,50.17053101081979,33.70037944414844,0.0,0.0,41.20184760207877,40.209671332061596,107.54442748349679,99.28109923844775,215.97892457648297,222.0117112572988,216.96086238106756,13332.279063317186,4,3,Mapping 1
1650000,37.000324105478974,-2.999053979049651,-0.5367580998571346,1.8116571865359512,46.2600454641625,33.24255804191987,0.0,0.0,39.662649045763764,41.14420129646491,107.39766965413371,99.1783687578936,212.4935407392864,218.20687220864713,213.23841709043987,13271.883337374024,4,3,Mapping 1
1660000,37.000325997249625,-2.999054629282643,-1.0013677583425795,0.6706140857884296,46.90581181900259,32.78738389281634,0.0,0.0,39.78591955929654,41.52123396187093,107.24745175545732,99.07321622882012,214.6154629938844,221.71483294370026,216.6622688344802,13561.09815044183,4,3,Mapping 1
1670000,37.00032788771577,-2.9990552832986297,-1.740914883756743,-0.6738160712813385,47.07759639110803,32.33492890287168,0.0,0.0,38.48703070299893,41.936665279510855,107.09379799203072,98.9656585944215,214.13470696483378,220.34390967877306,215.31837871946087,13297.218815281532,4,3,Mapping 1
1680000,37.00032977686983,-2.9990559410949937,0.6773998803592036,-1.284487585986946,47.2305864877744,31.88526454856121,0.0,0.0,40.49219844060642,42.03458142471444,106.93673311119696,98.85571317783787,215.06645678922587,218.9776488927845,213.97909718259896,13305.0622655597,4,3,Mapping 1
1690000,37.00033166470427,-2.9990566026691035,1.9808864004219644,0.7454202827142047,46.10511472532701,31.43846186551017,0.0,0.0,40.501770025776835,42.77667853039791,106.77628239916959,98.7433976794187,216.33677250319704,218.9514620466665,213.94932678640046,13143.596399709137,4,3,Mapping 1
1700000,37.00033355121151,-2.9990572680183107,-1.6176153488358151,1.6450252236564493,46.29069559502312,30.994591437271964,0.0,0.0,39.95201244694401,41.27667040125927,106.6124716770381,98.62873017392667,213.2260098940614,217.4258117678444,212.45437929240217,13328.294337272026,4,3,Mapping 1
1710000,37.00033543638401,-2.9990579371399537,-0.9504279159303584,0.5459630955291201,45.931864787934515,30.553723384177637,0.0,0.0,39.58176206611468,40.392758827005906,106.44532729668879,98.51172910768216,214.2852059003799,219.40473826804515,214.38386807766622,13209.802389990862,4,3,Mapping 1
1720000,37.000337320214236,-2.9990586100313545,0.7515831891453333,1.2334481539361506,44.775465585357914,30.11592735225876,0.0,0.0,42.626467638503755,40.87814873893592,106.27487613664191,98.39241329564933,211.84570083425584,217.28064612301569,212.30423485794546,13249.218439203009,4,3,Mapping 1
1730000,37.00033920269464,-2.9990592866898207,-0.045636908671423004,2.5919470477380866,43.734331399894394,29.68127250224503,0.0,0.0,38.79663226403462,40.61685694423898,106.10114559780543,98.2708019184638,209.47360417576706,215.41808742367743,210.48022142895417,13277.484293038304,4,3,Mapping 1
1740000,37.00034108381769,-2.9990599671126446,0.8344192422751492,0.8373742843906191,47.04770776683349,29.249827498638624,0.0,0.0,39.27856300780329,41.369898963097164,105.9241635991465,98.14691451940254,212.25124284386442,215.0204431435978,210.08758660999513,13159.60231452373,4,3,Mapping 1
1750000,37.00034296357586,-2.999060651297103,-0.10172052314883664,-1.1006328657939177,40.27289745668452,28.821660498866983,0.0,0.0,40.70825673784339,39.697333102165764,105.74395857328088,98.02077100129661,212.49477954609137,217.69385402718194,212.69550955269364,13085.167010061528,4,3,Mapping 1
1760000,37.00034484196163,-2.9990613392404586,-0.5806274992663778,0.0510607655044548,43.660200498339975,28.396839142515596,0.0,0.0,38.98556006333687,40.503938107378815,105.56055946198134,97.89239162338694,217.48680406767394,220.27202338236586,215.21027765199102,12903.099888110057,4,3,Mapping 1
1770000,37.00034671896747,-2.999062030939958,-0.22584211067313115,1.3702151935211506,42.716791621763825,27.975430540642712,0.0,0.0,38.91179308344719,42.21774812665356,105.37399571160557,97.7617969981239,213.5463862519396,217.0608753613647,212.0687763657158,13080.29919602289,4,3,Mapping 1
1780000,37.00034859458589,-2.9990627263928338,-2.382089422255963,-0.24877979094801292,44.068236964030675,27.557501265177468,0.0,0.0,41.131518646429335,40.69135238397016,105.18429726844441,97.62900808791109,209.36489010194833,216.17914634519624,211.20319897729127,13034.059357749185,4,3,Mapping 1
1790000,37.000350468809366,-2.999063425596303,-1.143484345648465,1.5057055948129585,39.89130246974235,27.143117338403133,0.0,0.0,40.60519172494089,39.375690671923216,104.99149457399108,97.49404620179375,210.99393683722437,216.69070232962198,211.6988435975908,12971.419365276346,4,3,Mapping 1
1800000,37.00035234163041,-2.9990641285475674,0.9482793742187017,-0.06693689798839145,41.36279014980363,26.73234422252738,0.0,0.0,40.48413797709428,40.00668422746276,104.79561856013221,97.35693299209254,212.70705180520935,218.45772861866433,213.42099317962516,13214.602362231542,4,3,Mapping 1
1810000,37.000354213041525,-2.9990648352438143,1.1918998441788446,0.33434742094683506,41.71342194939546,26.32524680934081,0.0,0.0,40.18182484903757,38.0320660843324,104.59670064426136,97.21769045098296,210.84047818714626,215.90672711765822,210.92468603354587,13151.286519660465,4,3,Mapping 1
1820000,37.00035608303522,-2.9990655456822157,1.406166055092316,-0.35074104034384945,43.607447214235876,25.921889409965747,0.0,0.0,39.307846603613136,40.125517798660404,104.3947727243159,97.07634090702112,209.27305211993385,214.28488923728867,209.33618189723794,12853.891650695083,4,3,Mapping 1
1830000,37.000357951604016,-2.9990662598599283,0.4408693464480327,0.15953634032107483,41.67427771581415,25.52233574469662,0.0,0.0,39.747328896214526,41.75214850987958,104.18986717373787,96.9329070216165,215.2145470987821,217.05478314758943,212.03796489810037,13036.26447659906,4,3,Mapping 1
1840000,37.000359818740435,-2.999066977774095,-2.25606887428627,0.2124474277695408,38.17906061825404,25.12664893293387,0.0,0.0,39.920925184737165,38.838726819198364,103.9820168363599,96.78741178545194,209.21258942129776,215.3265221979206,210.34553981509907,12923.341581289344,4,3,Mapping 1
1850000,37.000361684436996,-2.999067699421843,-0.6350065291871417,-1.6085419264167173,39.100807609235204,24.7348914832126,0.0,0.0,40.84621635315539,38.490931425528466,103.7712550212166,96.63987851485162,212.46047717746538,217.24707524236374,212.21752001793857,13026.075053813112,4,3,Mapping 1
1860000,37.000363548686245,-2.9990684248002832,1.324655676548632,-0.44159329258107544,41.371256799343264,24.34712528332784,0.0,0.0,40.42585736558655,39.21616503991507,103.55761549728268,96.49033084809787,209.81061551133362,214.12726771915078,209.1658536700961,12893.9203178491,4,3,Mapping 1
1870000,37.00036541148072,-2.9990691539065146,1.6230542386835534,-1.23320808685344,36.71474174205788,23.963411590557815,0.0,0.0,39.072156534458365,40.71399865844107,103.34113248813819,96.33879274169672,205.99765475868384,210.88969668038348,205.9992739175801,12904.636773424307,4,3,Mapping 1
1880000,37.000367272812966,-2.999069886737619,1.3626477430072432,-0.4071086073883589,38.46996092969198,23.583811021986854,0.0,0.0,40.78954222775887,41.421399788594236,103.12184066656215,96.1852884665935,205.46935800653452,210.23549061363997,205.3562266680081,13039.656380017304,4,3,Mapping 1
1890000,37.00036913267553,-2.9990706232906637,-0.2362524647697995,-0.7951637696651995,38.11386442286864,23.208383544929422,0.0,0.0,38.321493950064834,40.08988885959877,102.89977514905507,96.02984260433855,209.9318435550902,216.0526916642788,211.03429610295066,13010.269436169609,4,3,Mapping 1
1900000,37.00037099106097,-2.999071363562701,-1.3065758665745653,1.0118211762355755,36.85937115879982,22.837188467456777,0.0,0.0,39.67957815106568,38.28152797238074,102.67497149029151,95.87248004320406,210.92753041379152,215.83268962869263,210.81528582603303,13064.435558529733,4,3,Mapping 1
1910000,37.000372847961856,-2.9990721075507696,-0.04063158995848167,1.0233999370855111,42.5153280561049,22.47028442902781,0.0,0.0,38.857951622916346,39.471832013178854,102.4474656775032,95.71322597425224,207.16848437300985,211.56227399802015,206.64010665743993,12877.106577043409,4,3,Mapping 1
1920000,37.00037470337075,-2.999072855251892,0.014807018230262495,0.5602941543334771,35.78538415565197,22.107729391225497,0.0,0.0,39.142896555529276,41.21097136033549,102.21729412479411,95.55210588735588,206.1968947407662,210.767391109023,205.8596959573986,12738.742985884339,4,3,Mapping 1
1930000,37.00037655728024,-2.999073606663076,1.565564820091453,-1.2676492312148346,36.99161638698881,21.749580628600388,0.0,0.0,41.926586278039565,39.03901542383493,101.98449366738782,95.38914556717148,209.7680278529365,214.16251470017693,209.17167845230495,12962.112596437086,4,3,Mapping 1
1940000,37.000378409682895,-2.999074361781314,0.2277913001222113,-0.09813477721354251,34.03502118234031,21.395894719622742,0.0,0.0,38.529325853578605,39.41965144909999,101.74910155580858,95.22437108906601,205.09168222411614,208.51651123967665,203.65327112520674,12948.544520685506,4,3,Mapping 1
1950000,37.000380260571305,-2.9990751206035857,0.0166811788807713,-1.347192311780125,36.0930379739913,21.046727537744466,0.0,0.0,39.18080594400702,39.449905111547956,101.51115544999658,95.0578088149976,204.6466594753805,208.56064291498467,203.6923946820829,12904.696145156644,4,3,Mapping 1
1960000,37.000382109938066,-2.9990758831268542,0.07349514814345873,-0.14729338595109662,36.2435007030931,20.70213424257262,0.0,0.0,40.51040177131821,37.59456388934753,101.27069341335873,94.88948538935111,206.4525315927756,211.31554784692605,206.37896305075208,12753.71027711137,4,3,Mapping 1
1970000,37.000383957775774,-2.999076649348068,0.3998588297626864,0.6474211672292706,32.78493052136995,20.362169271155516,0.0,0.0,39.529997240094545,40.07038056685133,101.02775390675552,94.71942773472887,202.71493214434912,208.79119173345154,203.90959600508967,12707.406543120418,4,3,Mapping 1
1980000,37.000385804077034,-2.9990774192641605,0.6264400860615683,0.9921043229151046,33.30502309089835,20.026886329383057,0.0,0.0,40.155557730767974,39.85913901537307,100.78237578242519,94.54766304769763,203.67827865800064,209.18597365258196,204.29115751844014,12854.671880218079,4,3,Mapping 1
1990000,37.00038764883447,-2.9990781928720516,-0.7245374340179959,0.4728447798590435,31.07215667147962,19.6963383835026,0.0,0.0,41.42954963268528,36.945727278847585,100.53459827784607,94.37421879449225,203.34971628696664,208.45495849681586,203.5732714475047,12699.238237010957,4,3,Mapping 1
2000000,37.00038949204068,-2.999078970168645,-1.0576203946255687,1.2584715640140411,30.017006596883995,19.37057765175153,0.0,0.0,40.65462785766342,37.54346391198141,100.28446100953808,94.19912270667665,204.4278943165377,209.07037359396745,204.17028671285883,12744.02577937577,4,3,Mapping 1
2010000,37.000391333688306,-2.999079751150831,1.3705585214046985,0.25975638693745856,33.81739959196973,19.049655596108206,0.0,0.0,39.53131764994269,37.84023099408606,100.03200396680423,94.02240277676296,205.4089232148049,210.84712097858392,205.9013700695142,13052.637230838178,4,3,Mapping 1
2020000,37.00039317376997,-2.9990805358154837,-1.6410412944356836,-0.23356027201029736,30.068786620142237,18.733622914162197,0.0,0.0,39.86628052059921,39.49507382909132,99.77726750541342,93.8440872537894,201.90610610631703,207.73183677811704,202.85519782246496,12962.239780676548,4,3,Mapping 1
2030000,37.00039501227831,-2.9990813241594636,1.6377474592047725,0.8736605096994118,25.777618493679242,18.422529531105376,0.0,0.0,40.5306060097858,37.933393836048694,99.52029234122517,93.66420463885763,202.3366802054147,208.44326077721425,203.54594533251398,12816.170194949254,4,3,Mapping 1
